Time,header.seq,header.stamp.secs,header.stamp.nsecs,header.frame_id,status.status,status.service,latitude,longitude,altitude,position_covariance_0,position_covariance_1,position_covariance_2,position_covariance_3,position_covariance_4,position_covariance_5,position_covariance_6,position_covariance_7,position_covariance_8,position_covariance_type
1615423993.005,0,1615423993,5000114,/vehicle_frd,0,0,32.88298300968657,-117.1177939947913,147.6850898167075,0.0,0.0,0.0,0.0,0.0,0.0,0.0,0.0,0.0,0
1615423993.025,0,1615423993,25000095,/vehicle_frd,0,0,32.882983009100734,-117.117793990152,147.6850917268766,0.0,0.0,0.0,0.0,0.0,0.0,0.0,0.0,0.0,0
1615423993.045,0,1615423993,45000076,/vehicle_frd,0,0,32.88298300886646,-117.11779398829681,147.68509249208557,0.0,0.0,0.0,0.0,0.0,0.0,0.0,0.0,0.0,0
1615423993.065,0,1615423993,65000057,/vehicle_frd,0,0,32.882983007681844,-117.11779398641345,147.68498786348113,0.0,0.0,0.0,0.0,0.0,0.0,0.0,0.0,0.0,0
1615423993.085,0,1615423993,85000038,/vehicle_frd,0,0,32.882983007330616,-117.11779398363203,147.68498901653163,0.0,0.0,0.0,0.0,0.0,0.0,0.0,0.0,0.0,0
1615423993.105,0,1615423993,105000019,/vehicle_frd,0,0,32.882983006744794,-117.11779397899272,147.68499094246306,0.0,0.0,0.0,0.0,0.0,0.0,0.0,0.0,0.0,0
1615423993.125,0,1615423993,125000000,/vehicle_frd,0,0,32.88298300592506,-117.11779397250093,147.68499364570607,0.0,0.0,0.0,0.0,0.0,0.0,0.0,0.0,0.0,0
1615423993.145,0,1615423993,144999981,/vehicle_frd,0,0,32.882983005222286,-117.1177939669354,147.68499597134763,0.0,0.0,0.0,0.0,0.0,0.0,0.0,0.0,0.0,0
1615423993.165,0,1615423993,164999962,/vehicle_frd,0,0,32.88298300428526,-117.11779395951466,147.68499907640847,0.0,0.0,0.0,0.0,0.0,0.0,0.0,0.0,0.0,0
1615423993.185,0,1615423993,184999943,/vehicle_frd,0,0,32.88298300358249,-117.11779395394912,147.68500141765367,0.0,0.0,0.0,0.0,0.0,0.0,0.0,0.0,0.0,0
1615423993.205,0,1615423993,204999924,/vehicle_frd,0,0,32.88298300311399,-117.11779395023875,147.68500298312478,0.0,0.0,0.0,0.0,0.0,0.0,0.0,0.0,0.0,0
1615423993.225,0,1615423993,224999905,/vehicle_frd,0,0,32.88298300241126,-117.1177939446732,147.68500533992466,0.0,0.0,0.0,0.0,0.0,0.0,0.0,0.0,0.0,0
1615423993.245,0,1615423993,244999886,/vehicle_frd,0,0,32.882982999770604,-117.11779393812282,147.684806196545,0.0,0.0,0.0,0.0,0.0,0.0,0.0,0.0,0.0,0
1615423993.265,0,1615423993,265000105,/vehicle_frd,0,0,32.88298299895096,-117.11779393163103,147.6848089494265,0.0,0.0,0.0,0.0,0.0,0.0,0.0,0.0,0.0,0
1615423993.285,0,1615423993,285000086,/vehicle_frd,0,0,32.88298299813099,-117.11779392513651,147.6848116835957,0.0,0.0,0.0,0.0,0.0,0.0,0.0,0.0,0.0,0
1615423993.305,0,1615423993,305000067,/vehicle_frd,0,0,32.882982997428336,-117.11779391957094,147.68481402188652,0.0,0.0,0.0,0.0,0.0,0.0,0.0,0.0,0.0,0
1615423993.325,0,1615423993,325000048,/vehicle_frd,0,0,32.88298299660875,-117.11779391307914,147.6848167382049,0.0,0.0,0.0,0.0,0.0,0.0,0.0,0.0,0.0,0
1615423993.345,0,1615423993,345000029,/vehicle_frd,0,0,32.882982995671554,-117.11779390565567,147.68481983788342,0.0,0.0,0.0,0.0,0.0,0.0,0.0,0.0,0.0,0
1615423993.365,0,1615423993,365000010,/vehicle_frd,0,0,32.882982994383596,-117.11779389545347,147.68482408478224,0.0,0.0,0.0,0.0,0.0,0.0,0.0,0.0,0.0,0
1615423993.385,0,1615423993,384999990,/vehicle_frd,0,0,32.8829829928611,-117.11779388339338,147.68482910616376,0.0,0.0,0.0,0.0,0.0,0.0,0.0,0.0,0.0,0
1615423993.405,0,1615423993,404999971,/vehicle_frd,0,0,32.88298299110477,-117.11779386948078,147.68483487846865,0.0,0.0,0.0,0.0,0.0,0.0,0.0,0.0,0.0,0
1615423993.425,0,1615423993,424999952,/vehicle_frd,0,0,32.88298298993414,-117.11779386020753,147.6848387569196,0.0,0.0,0.0,0.0,0.0,0.0,0.0,0.0,0.0,0
1615423993.445,0,1615423993,444999933,/vehicle_frd,0,0,32.88298298794372,-117.11779384443973,147.68484540301776,0.0,0.0,0.0,0.0,0.0,0.0,0.0,0.0,0.0,0
1615423993.465,0,1615423993,464999914,/vehicle_frd,0,0,32.88298298238832,-117.11779383040782,147.6844300571262,0.0,0.0,0.0,0.0,0.0,0.0,0.0,0.0,0.0,0
1615423993.485,0,1615423993,484999895,/vehicle_frd,0,0,32.8829829807491,-117.11779381742146,147.68443563713072,0.0,0.0,0.0,0.0,0.0,0.0,0.0,0.0,0.0,0
1615423993.505,0,1615423993,505000114,/vehicle_frd,0,0,32.882982979461026,-117.11779380721651,147.68444004896475,0.0,0.0,0.0,0.0,0.0,0.0,0.0,0.0,0.0,0
1615423993.525,0,1615423993,525000095,/vehicle_frd,0,0,32.88298297840718,-117.11779379886676,147.68444365951495,0.0,0.0,0.0,0.0,0.0,0.0,0.0,0.0,0.0,0
1615423993.545,0,1615423993,545000076,/vehicle_frd,0,0,32.8829829770027,-117.11779378773825,147.68444844720887,0.0,0.0,0.0,0.0,0.0,0.0,0.0,0.0,0.0,0
1615423993.565,0,1615423993,565000057,/vehicle_frd,0,0,32.88298297477882,-117.11779377011514,147.684455993682,0.0,0.0,0.0,0.0,0.0,0.0,0.0,0.0,0.0,0
1615423993.585,0,1615423993,585000038,/vehicle_frd,0,0,32.88298297232077,-117.11779375063406,147.68446423858117,0.0,0.0,0.0,0.0,0.0,0.0,0.0,0.0,0.0,0
1615423993.605,0,1615423993,605000019,/vehicle_frd,0,0,32.88298297009711,-117.11779373300813,147.68447162746543,0.0,0.0,0.0,0.0,0.0,0.0,0.0,0.0,0.0,0
1615423993.625,0,1615423993,625000000,/vehicle_frd,0,0,32.88298296810815,-117.11779371724006,147.6844781900861,0.0,0.0,0.0,0.0,0.0,0.0,0.0,0.0,0.0,0
1615423993.645,0,1615423993,644999981,/vehicle_frd,0,0,32.88298296565157,-117.11779369776148,147.6844862927423,0.0,0.0,0.0,0.0,0.0,0.0,0.0,0.0,0.0,0
1615423993.665,0,1615423993,664999962,/vehicle_frd,0,0,32.88298295619387,-117.11779367714247,147.68373129760528,0.0,0.0,0.0,0.0,0.0,0.0,0.0,0.0,0.0,0
1615423993.685,0,1615423993,684999943,/vehicle_frd,0,0,32.882982953503934,-117.11779365580578,147.6837402309609,0.0,0.0,0.0,0.0,0.0,0.0,0.0,0.0,0.0,0
1615423993.705,0,1615423993,704999924,/vehicle_frd,0,0,32.88298295046417,-117.1177936316902,147.68375040535892,0.0,0.0,0.0,0.0,0.0,0.0,0.0,0.0,0.0,0
1615423993.725,0,1615423993,724999905,/vehicle_frd,0,0,32.88298294719084,-117.11779360571656,147.68376151753063,0.0,0.0,0.0,0.0,0.0,0.0,0.0,0.0,0.0,0
1615423993.745,0,1615423993,744999886,/vehicle_frd,0,0,32.882982943918016,-117.11779357974282,147.6837727376842,0.0,0.0,0.0,0.0,0.0,0.0,0.0,0.0,0.0,0
1615423993.765,0,1615423993,765000105,/vehicle_frd,0,0,32.8829829413466,-117.11779355933211,147.6837816437165,0.0,0.0,0.0,0.0,0.0,0.0,0.0,0.0,0.0,0
1615423993.785,0,1615423993,785000086,/vehicle_frd,0,0,32.88298293971042,-117.11779354634243,147.68378731598688,0.0,0.0,0.0,0.0,0.0,0.0,0.0,0.0,0.0,0
1615423993.805,0,1615423993,805000067,/vehicle_frd,0,0,32.88298293772466,-117.11779353057382,147.68379420573476,0.0,0.0,0.0,0.0,0.0,0.0,0.0,0.0,0.0,0
1615423993.825,0,1615423993,825000048,/vehicle_frd,0,0,32.88298293433832,-117.11779350367601,147.68380587241825,0.0,0.0,0.0,0.0,0.0,0.0,0.0,0.0,0.0,0
1615423993.845,0,1615423993,845000029,/vehicle_frd,0,0,32.88298292955145,-117.11779346564347,147.68382218103923,0.0,0.0,0.0,0.0,0.0,0.0,0.0,0.0,0.0,0
1615423993.865,0,1615423993,865000010,/vehicle_frd,0,0,32.88298291232725,-117.11779342042898,147.68255109745297,0.0,0.0,0.0,0.0,0.0,0.0,0.0,0.0,0.0,0
1615423993.885,0,1615423993,884999990,/vehicle_frd,0,0,32.882982907776025,-117.11779338424581,147.68256636597403,0.0,0.0,0.0,0.0,0.0,0.0,0.0,0.0,0.0,0
1615423993.905,0,1615423993,904999971,/vehicle_frd,0,0,32.88298290497615,-117.11779336197888,147.6825758366372,0.0,0.0,0.0,0.0,0.0,0.0,0.0,0.0,0.0,0
1615423993.925,0,1615423993,924999952,/vehicle_frd,0,0,32.882982902644066,-117.11779334342522,147.682583829666,0.0,0.0,0.0,0.0,0.0,0.0,0.0,0.0,0.0,0
1615423993.945,0,1615423993,944999933,/vehicle_frd,0,0,32.88298289961308,-117.11779331930255,147.68259437754773,0.0,0.0,0.0,0.0,0.0,0.0,0.0,0.0,0.0,0
1615423993.965,0,1615423993,964999914,/vehicle_frd,0,0,32.88298289646615,-117.11779329424796,147.68260546775133,0.0,0.0,0.0,0.0,0.0,0.0,0.0,0.0,0.0,0
1615423993.985,0,1615423993,984999895,/vehicle_frd,0,0,32.88298289180651,-117.11779325713708,147.68262195477232,0.0,0.0,0.0,0.0,0.0,0.0,0.0,0.0,0.0,0
1615423994.005,0,1615423994,5000114,/vehicle_frd,0,0,32.88298288540192,-117.11779320610884,147.68264454500988,0.0,0.0,0.0,0.0,0.0,0.0,0.0,0.0,0.0,0
1615423994.025,0,1615423994,25000095,/vehicle_frd,0,0,32.88298287923321,-117.11779315694106,147.6826663374844,0.0,0.0,0.0,0.0,0.0,0.0,0.0,0.0,0.0,0
1615423994.045,0,1615423994,45000076,/vehicle_frd,0,0,32.8829828746958,-117.11779312076102,147.68268233053666,0.0,0.0,0.0,0.0,0.0,0.0,0.0,0.0,0.0,0
1615423994.065,0,1615423994,65000057,/vehicle_frd,0,0,32.882982854088965,-117.11779309283969,147.6807812940818,0.0,0.0,0.0,0.0,0.0,0.0,0.0,0.0,0.0,0
1615423994.085,0,1615423994,85000038,/vehicle_frd,0,0,32.88298285060159,-117.11779306500732,147.68079367093407,0.0,0.0,0.0,0.0,0.0,0.0,0.0,0.0,0.0,0
1615423994.105,0,1615423994,105000019,/vehicle_frd,0,0,32.88298284560537,-117.11779302511245,147.68081138039815,0.0,0.0,0.0,0.0,0.0,0.0,0.0,0.0,0.0,0
1615423994.125,0,1615423994,125000000,/vehicle_frd,0,0,32.88298283828885,-117.11779296665908,147.6808372719339,0.0,0.0,0.0,0.0,0.0,0.0,0.0,0.0,0.0,0
1615423994.145,0,1615423994,144999981,/vehicle_frd,0,0,32.88298283062845,-117.11779290542577,147.68086431967083,0.0,0.0,0.0,0.0,0.0,0.0,0.0,0.0,0.0,0
1615423994.165,0,1615423994,164999962,/vehicle_frd,0,0,32.88298282413237,-117.1177928534696,147.68088729281823,0.0,0.0,0.0,0.0,0.0,0.0,0.0,0.0,0.0,0
1615423994.185,0,1615423994,184999943,/vehicle_frd,0,0,32.882982819611186,-117.11779281728671,147.68090337323954,0.0,0.0,0.0,0.0,0.0,0.0,0.0,0.0,0.0,0
1615423994.205,0,1615423994,204999924,/vehicle_frd,0,0,32.88298281520852,-117.1177927820298,147.68091911056365,0.0,0.0,0.0,0.0,0.0,0.0,0.0,0.0,0.0,0
1615423994.225,0,1615423994,224999905,/vehicle_frd,0,0,32.88298280895608,-117.11779273192441,147.68094152556242,0.0,0.0,0.0,0.0,0.0,0.0,0.0,0.0,0.0,0
1615423994.245,0,1615423994,244999886,/vehicle_frd,0,0,32.88298280074086,-117.11779266604637,147.68097097085354,0.0,0.0,0.0,0.0,0.0,0.0,0.0,0.0,0.0,0
1615423994.265,0,1615423994,265000105,/vehicle_frd,0,0,32.882982763898774,-117.11779259018215,147.67794169113895,0.0,0.0,0.0,0.0,0.0,0.0,0.0,0.0,0.0,0
1615423994.285,0,1615423994,285000086,/vehicle_frd,0,0,32.88298275615715,-117.11779252801637,147.6779696739112,0.0,0.0,0.0,0.0,0.0,0.0,0.0,0.0,0.0,0
1615423994.305,0,1615423994,305000067,/vehicle_frd,0,0,32.88298275038429,-117.11779248162495,147.67799069349724,0.0,0.0,0.0,0.0,0.0,0.0,0.0,0.0,0.0,0
1615423994.325,0,1615423994,325000048,/vehicle_frd,0,0,32.882982744154056,-117.11779243151847,147.67801348429234,0.0,0.0,0.0,0.0,0.0,0.0,0.0,0.0,0.0,0
1615423994.345,0,1615423994,345000029,/vehicle_frd,0,0,32.882982736083775,-117.1177923665618,147.67804329343454,0.0,0.0,0.0,0.0,0.0,0.0,0.0,0.0,0.0,0
1615423994.365,0,1615423994,365000010,/vehicle_frd,0,0,32.882982726291715,-117.11779228768376,147.67807963103073,0.0,0.0,0.0,0.0,0.0,0.0,0.0,0.0,0.0,0
1615423994.385,0,1615423994,384999990,/vehicle_frd,0,0,32.88298271685405,-117.1177922115949,147.67811482595363,0.0,0.0,0.0,0.0,0.0,0.0,0.0,0.0,0.0,0
1615423994.405,0,1615423994,404999971,/vehicle_frd,0,0,32.88298270799897,-117.1177921401404,147.6781481548898,0.0,0.0,0.0,0.0,0.0,0.0,0.0,0.0,0.0,0
1615423994.425,0,1615423994,424999952,/vehicle_frd,0,0,32.88298269995677,-117.11779207518165,147.6781786483253,0.0,0.0,0.0,0.0,0.0,0.0,0.0,0.0,0.0,0
1615423994.445,0,1615423994,444999933,/vehicle_frd,0,0,32.88298265538034,-117.11779200544647,147.6742240069351,0.0,0.0,0.0,0.0,0.0,0.0,0.0,0.0,0.0,0
1615423994.465,0,1615423994,464999914,/vehicle_frd,0,0,32.88298264586561,-117.11779192841618,147.6742604906413,0.0,0.0,0.0,0.0,0.0,0.0,0.0,0.0,0.0,0
1615423994.485,0,1615423994,484999895,/vehicle_frd,0,0,32.882982635101975,-117.1177918411769,147.67430188689005,0.0,0.0,0.0,0.0,0.0,0.0,0.0,0.0,0.0,0
1615423994.505,0,1615423994,505000114,/vehicle_frd,0,0,32.882982624006075,-117.11779175115845,147.67434474025987,0.0,0.0,0.0,0.0,0.0,0.0,0.0,0.0,0.0,0
1615423994.525,0,1615423994,525000095,/vehicle_frd,0,0,32.88298261372227,-117.11779166763037,147.67438474726356,0.0,0.0,0.0,0.0,0.0,0.0,0.0,0.0,0.0,0
1615423994.545,0,1615423994,545000076,/vehicle_frd,0,0,32.88298260390703,-117.1177915878099,147.67442316916654,0.0,0.0,0.0,0.0,0.0,0.0,0.0,0.0,0.0,0
1615423994.565,0,1615423994,565000057,/vehicle_frd,0,0,32.882982593761135,-117.11779150520447,147.6744630833372,0.0,0.0,0.0,0.0,0.0,0.0,0.0,0.0,0.0,0
1615423994.585,0,1615423994,585000038,/vehicle_frd,0,0,32.88298258248892,-117.11779141331255,147.6745075151402,0.0,0.0,0.0,0.0,0.0,0.0,0.0,0.0,0.0,0
1615423994.605,0,1615423994,605000019,/vehicle_frd,0,0,32.882982569751505,-117.11779130935061,147.67455781197154,0.0,0.0,0.0,0.0,0.0,0.0,0.0,0.0,0.0,0
1615423994.625,0,1615423994,625000000,/vehicle_frd,0,0,32.88298255725743,-117.11779120724782,147.67460708727725,0.0,0.0,0.0,0.0,0.0,0.0,0.0,0.0,0.0,0
1615423994.645,0,1615423994,644999981,/vehicle_frd,0,0,32.88298254511922,-117.11779110792844,147.67465492898674,0.0,0.0,0.0,0.0,0.0,0.0,0.0,0.0,0.0,0
1615423994.665,0,1615423994,664999962,/vehicle_frd,0,0,32.88298248565838,-117.11779101368843,147.67469988867205,0.0,0.0,0.0,0.0,0.0,0.0,0.0,0.0,0.0,0
1615423994.685,0,1615423994,684999943,/vehicle_frd,0,0,32.882982473664626,-117.11779091528784,147.67474765651963,0.0,0.0,0.0,0.0,0.0,0.0,0.0,0.0,0.0,0
1615423994.705,0,1615423994,704999924,/vehicle_frd,0,0,32.8829824605569,-117.11779080760142,147.67479989406496,0.0,0.0,0.0,0.0,0.0,0.0,0.0,0.0,0.0,0
1615423994.725,0,1615423994,724999905,/vehicle_frd,0,0,32.88298244634148,-117.11779069062537,147.6748566603393,0.0,0.0,0.0,0.0,0.0,0.0,0.0,0.0,0.0,0
1615423994.745,0,1615423994,744999886,/vehicle_frd,0,0,32.88298243225925,-117.11779057457832,147.67491303445047,0.0,0.0,0.0,0.0,0.0,0.0,0.0,0.0,0.0,0
1615423994.765,0,1615423994,765000105,/vehicle_frd,0,0,32.882982418536976,-117.11779046131403,147.6749681767683,0.0,0.0,0.0,0.0,0.0,0.0,0.0,0.0,0.0,0
1615423994.785,0,1615423994,785000086,/vehicle_frd,0,0,32.88298240506252,-117.11779034989988,147.67502256544225,0.0,0.0,0.0,0.0,0.0,0.0,0.0,0.0,0.0,0
1615423994.805,0,1615423994,805000067,/vehicle_frd,0,0,32.88298239116266,-117.117790234768,147.67507905870667,0.0,0.0,0.0,0.0,0.0,0.0,0.0,0.0,0.0,0
1615423994.825,0,1615423994,825000048,/vehicle_frd,0,0,32.882982376056304,-117.11779010941717,147.67514058456254,0.0,0.0,0.0,0.0,0.0,0.0,0.0,0.0,0.0,0
1615423994.845,0,1615423994,845000029,/vehicle_frd,0,0,32.882982360303735,-117.11778997849112,147.67520472675642,0.0,0.0,0.0,0.0,0.0,0.0,0.0,0.0,0.0,0
1615423994.865,0,1615423994,865000010,/vehicle_frd,0,0,32.88298234469263,-117.11778984849273,147.67526885243103,0.0,0.0,0.0,0.0,0.0,0.0,0.0,0.0,0.0,0
1615423994.885,0,1615423994,884999990,/vehicle_frd,0,0,32.8829823291037,-117.11778971849066,147.6753335019535,0.0,0.0,0.0,0.0,0.0,0.0,0.0,0.0,0.0,0
1615423994.905,0,1615423994,904999971,/vehicle_frd,0,0,32.88298231453727,-117.11778959684108,147.67539463250841,0.0,0.0,0.0,0.0,0.0,0.0,0.0,0.0,0.0,0
1615423994.925,0,1615423994,924999952,/vehicle_frd,0,0,32.88298230387793,-117.11778950768623,147.6754398770733,0.0,0.0,0.0,0.0,0.0,0.0,0.0,0.0,0.0,0
1615423994.945,0,1615423994,944999933,/vehicle_frd,0,0,32.88298229312129,-117.11778941759074,147.67548559596491,0.0,0.0,0.0,0.0,0.0,0.0,0.0,0.0,0.0,0
1615423994.965,0,1615423994,964999914,/vehicle_frd,0,0,32.88298228293527,-117.11778933215659,147.67552823866174,0.0,0.0,0.0,0.0,0.0,0.0,0.0,0.0,0.0,0
1615423994.985,0,1615423994,984999895,/vehicle_frd,0,0,32.88298227033543,-117.11778922630401,147.6755790465939,0.0,0.0,0.0,0.0,0.0,0.0,0.0,0.0,0.0,0
1615423995.005,0,1615423995,5000114,/vehicle_frd,0,0,32.88298225366824,-117.11778908606398,147.6756431134418,0.0,0.0,0.0,0.0,0.0,0.0,0.0,0.0,0.0,0
1615423995.025,0,1615423995,25000095,/vehicle_frd,0,0,32.88298223735561,-117.11778894860196,147.67570236494726,0.0,0.0,0.0,0.0,0.0,0.0,0.0,0.0,0.0,0
1615423995.045,0,1615423995,45000076,/vehicle_frd,0,0,32.88298222315642,-117.11778882877368,147.67575100538664,0.0,0.0,0.0,0.0,0.0,0.0,0.0,0.0,0.0,0
1615423995.065,0,1615423995,65000057,/vehicle_frd,0,0,32.882982195950014,-117.11778876152671,147.67620928903085,0.0,0.0,0.0,0.0,0.0,0.0,0.0,0.0,0.0,0
1615423995.085,0,1615423995,85000038,/vehicle_frd,0,0,32.882982181236976,-117.1177886370607,147.67625636325025,0.0,0.0,0.0,0.0,0.0,0.0,0.0,0.0,0.0,0
1615423995.105,0,1615423995,105000019,/vehicle_frd,0,0,32.8829821645645,-117.11778849587529,147.6763089092826,0.0,0.0,0.0,0.0,0.0,0.0,0.0,0.0,0.0,0
1615423995.125,0,1615423995,125000000,/vehicle_frd,0,0,32.88298214626131,-117.11778834075017,147.67636434740047,0.0,0.0,0.0,0.0,0.0,0.0,0.0,0.0,0.0,0
1615423995.145,0,1615423995,144999981,/vehicle_frd,0,0,32.8829821278616,-117.117788184687,147.67641858095666,0.0,0.0,0.0,0.0,0.0,0.0,0.0,0.0,0.0,0
1615423995.165,0,1615423995,164999962,/vehicle_frd,0,0,32.882982111772506,-117.11778804813308,147.67646553125815,0.0,0.0,0.0,0.0,0.0,0.0,0.0,0.0,0.0,0
1615423995.185,0,1615423995,184999943,/vehicle_frd,0,0,32.88298209711698,-117.11778792365737,147.67650903828303,0.0,0.0,0.0,0.0,0.0,0.0,0.0,0.0,0.0,0
1615423995.205,0,1615423995,204999924,/vehicle_frd,0,0,32.8829820824729,-117.11778779917984,147.67655386141686,0.0,0.0,0.0,0.0,0.0,0.0,0.0,0.0,0.0,0
1615423995.225,0,1615423995,224999905,/vehicle_frd,0,0,32.88298206609297,-117.11778765983729,147.6766055430818,0.0,0.0,0.0,0.0,0.0,0.0,0.0,0.0,0.0,0
1615423995.245,0,1615423995,244999886,/vehicle_frd,0,0,32.88298204819886,-117.11778750748707,147.6766632276295,0.0,0.0,0.0,0.0,0.0,0.0,0.0,0.0,0.0,0
1615423995.265,0,1615423995,265000105,/vehicle_frd,0,0,32.88298203010171,-117.11778735327646,147.67672262483242,0.0,0.0,0.0,0.0,0.0,0.0,0.0,0.0,0.0,0
1615423995.285,0,1615423995,285000086,/vehicle_frd,0,0,32.88298201321875,-117.11778720927802,147.67677865024254,0.0,0.0,0.0,0.0,0.0,0.0,0.0,0.0,0.0,0
1615423995.305,0,1615423995,305000067,/vehicle_frd,0,0,32.882981998092944,-117.11778708014393,147.67682924719963,0.0,0.0,0.0,0.0,0.0,0.0,0.0,0.0,0.0,0
1615423995.325,0,1615423995,325000048,/vehicle_frd,0,0,32.882981982764065,-117.11778694914665,147.67688081639056,0.0,0.0,0.0,0.0,0.0,0.0,0.0,0.0,0.0,0
1615423995.345,0,1615423995,345000029,/vehicle_frd,0,0,32.88298196690707,-117.11778681350582,147.67693336267268,0.0,0.0,0.0,0.0,0.0,0.0,0.0,0.0,0.0,0
1615423995.365,0,1615423995,365000010,/vehicle_frd,0,0,32.88298194976283,-117.11778666671647,147.67698877039453,0.0,0.0,0.0,0.0,0.0,0.0,0.0,0.0,0.0,0
1615423995.385,0,1615423995,384999990,/vehicle_frd,0,0,32.8829819318737,-117.11778651341709,147.6770455271404,0.0,0.0,0.0,0.0,0.0,0.0,0.0,0.0,0.0,0
1615423995.405,0,1615423995,404999971,/vehicle_frd,0,0,32.88298191443079,-117.11778636382914,147.67709982716084,0.0,0.0,0.0,0.0,0.0,0.0,0.0,0.0,0.0,0
1615423995.425,0,1615423995,424999952,/vehicle_frd,0,0,32.88298189840814,-117.11778622631883,147.67714927476203,0.0,0.0,0.0,0.0,0.0,0.0,0.0,0.0,0.0,0
1615423995.445,0,1615423995,444999933,/vehicle_frd,0,0,32.882981883154706,-117.11778609531453,147.6771964012982,0.0,0.0,0.0,0.0,0.0,0.0,0.0,0.0,0.0,0
1615423995.465,0,1615423995,464999914,/vehicle_frd,0,0,32.882981867054816,-117.11778595687139,147.67724651608853,0.0,0.0,0.0,0.0,0.0,0.0,0.0,0.0,0.0,0
1615423995.485,0,1615423995,484999895,/vehicle_frd,0,0,32.882981849553815,-117.11778580635308,147.67730155667022,0.0,0.0,0.0,0.0,0.0,0.0,0.0,0.0,0.0,0
1615423995.505,0,1615423995,505000114,/vehicle_frd,0,0,32.88298183098099,-117.11778564653368,147.67736045588032,0.0,0.0,0.0,0.0,0.0,0.0,0.0,0.0,0.0,0
1615423995.525,0,1615423995,525000095,/vehicle_frd,0,0,32.882981813174254,-117.11778549322082,147.6774175298542,0.0,0.0,0.0,0.0,0.0,0.0,0.0,0.0,0.0,0
1615423995.545,0,1615423995,545000076,/vehicle_frd,0,0,32.88298179656461,-117.11778535012853,147.6774715849035,0.0,0.0,0.0,0.0,0.0,0.0,0.0,0.0,0.0,0
1615423995.565,0,1615423995,565000057,/vehicle_frd,0,0,32.88298178039672,-117.11778521075126,147.6775249633742,0.0,0.0,0.0,0.0,0.0,0.0,0.0,0.0,0.0,0
1615423995.585,0,1615423995,585000038,/vehicle_frd,0,0,32.88298176359341,-117.11778506579155,147.67758084504837,0.0,0.0,0.0,0.0,0.0,0.0,0.0,0.0,0.0,0
1615423995.605,0,1615423995,605000019,/vehicle_frd,0,0,32.88298174594343,-117.11778491340414,147.6776394105628,0.0,0.0,0.0,0.0,0.0,0.0,0.0,0.0,0.0,0
1615423995.625,0,1615423995,625000000,/vehicle_frd,0,0,32.88298172744782,-117.11778475357777,147.67770018139004,0.0,0.0,0.0,0.0,0.0,0.0,0.0,0.0,0.0,0
1615423995.645,0,1615423995,644999981,/vehicle_frd,0,0,32.882981709399544,-117.1177845974627,147.6777589994685,0.0,0.0,0.0,0.0,0.0,0.0,0.0,0.0,0.0,0
1615423995.665,0,1615423995,664999962,/vehicle_frd,0,0,32.882981714597726,-117.11778448582366,147.6723952537198,0.0,0.0,0.0,0.0,0.0,0.0,0.0,0.0,0.0,0
1615423995.685,0,1615423995,684999943,/vehicle_frd,0,0,32.88298169776576,-117.117784339926,147.67244853108565,0.0,0.0,0.0,0.0,0.0,0.0,0.0,0.0,0.0,0
1615423995.705,0,1615423995,704999924,/vehicle_frd,0,0,32.88298168062918,-117.11778419124188,147.67250200357068,0.0,0.0,0.0,0.0,0.0,0.0,0.0,0.0,0.0,0
1615423995.725,0,1615423995,724999905,/vehicle_frd,0,0,32.882981662544275,-117.1177840341874,147.67255738869522,0.0,0.0,0.0,0.0,0.0,0.0,0.0,0.0,0.0,0
1615423995.745,0,1615423995,744999886,/vehicle_frd,0,0,32.88298164372537,-117.1177838706239,147.67261412550494,0.0,0.0,0.0,0.0,0.0,0.0,0.0,0.0,0.0,0
1615423995.765,0,1615423995,765000105,/vehicle_frd,0,0,32.88298162502761,-117.11778370798878,147.67266974963493,0.0,0.0,0.0,0.0,0.0,0.0,0.0,0.0,0.0,0
1615423995.785,0,1615423995,785000086,/vehicle_frd,0,0,32.882981607410336,-117.11778355464506,147.672721767454,0.0,0.0,0.0,0.0,0.0,0.0,0.0,0.0,0.0,0
1615423995.805,0,1615423995,805000067,/vehicle_frd,0,0,32.8829815901239,-117.11778340408904,147.67277233595905,0.0,0.0,0.0,0.0,0.0,0.0,0.0,0.0,0.0,0
1615423995.825,0,1615423995,825000048,/vehicle_frd,0,0,32.88298157210159,-117.11778324702156,147.6728246557737,0.0,0.0,0.0,0.0,0.0,0.0,0.0,0.0,0.0,0
1615423995.845,0,1615423995,845000029,/vehicle_frd,0,0,32.88298155323904,-117.11778308251981,147.6728789962949,0.0,0.0,0.0,0.0,0.0,0.0,0.0,0.0,0.0,0
1615423995.865,0,1615423995,865000010,/vehicle_frd,0,0,32.882981533859045,-117.11778291337004,147.67293418794338,0.0,0.0,0.0,0.0,0.0,0.0,0.0,0.0,0.0,0
1615423995.885,0,1615423995,884999990,/vehicle_frd,0,0,32.8829815149203,-117.11778274793535,147.67298745839975,0.0,0.0,0.0,0.0,0.0,0.0,0.0,0.0,0.0,0
1615423995.905,0,1615423995,904999971,/vehicle_frd,0,0,32.88298149599772,-117.11778258249252,147.67304045745263,0.0,0.0,0.0,0.0,0.0,0.0,0.0,0.0,0.0,0
1615423995.925,0,1615423995,924999952,/vehicle_frd,0,0,32.88298147762164,-117.11778242169854,147.67309170321556,0.0,0.0,0.0,0.0,0.0,0.0,0.0,0.0,0.0,0
1615423995.945,0,1615423995,944999933,/vehicle_frd,0,0,32.88298145926678,-117.11778226090392,147.67314295538455,0.0,0.0,0.0,0.0,0.0,0.0,0.0,0.0,0.0,0
1615423995.965,0,1615423995,964999914,/vehicle_frd,0,0,32.88298144018911,-117.11778209359578,147.6731962429322,0.0,0.0,0.0,0.0,0.0,0.0,0.0,0.0,0.0,0
1615423995.985,0,1615423995,984999895,/vehicle_frd,0,0,32.882981420288964,-117.11778191884775,147.67325153842063,0.0,0.0,0.0,0.0,0.0,0.0,0.0,0.0,0.0,0
1615423996.005,0,1615423996,5000114,/vehicle_frd,0,0,32.88298140051394,-117.11778174502751,147.67330630044745,0.0,0.0,0.0,0.0,0.0,0.0,0.0,0.0,0.0,0
1615423996.025,0,1615423996,25000095,/vehicle_frd,0,0,32.88298138161152,-117.11778157863914,147.6733588114066,0.0,0.0,0.0,0.0,0.0,0.0,0.0,0.0,0.0,0
1615423996.045,0,1615423996,45000076,/vehicle_frd,0,0,32.882981362941976,-117.11778141410639,147.67341112948463,0.0,0.0,0.0,0.0,0.0,0.0,0.0,0.0,0.0,0
1615423996.065,0,1615423996,65000057,/vehicle_frd,0,0,32.88298134398897,-117.11778124677548,147.67346474654605,0.0,0.0,0.0,0.0,0.0,0.0,0.0,0.0,0.0,0
1615423996.085,0,1615423996,85000038,/vehicle_frd,0,0,32.88298132493901,-117.11778107852068,147.67351856479615,0.0,0.0,0.0,0.0,0.0,0.0,0.0,0.0,0.0,0
1615423996.105,0,1615423996,105000019,/vehicle_frd,0,0,32.882981305803106,-117.11778090932907,147.67357234509672,0.0,0.0,0.0,0.0,0.0,0.0,0.0,0.0,0.0,0
1615423996.125,0,1615423996,125000000,/vehicle_frd,0,0,32.88298128637582,-117.11778073734341,147.67362668918184,0.0,0.0,0.0,0.0,0.0,0.0,0.0,0.0,0.0,0
1615423996.145,0,1615423996,144999981,/vehicle_frd,0,0,32.88298126665592,-117.11778056256667,147.67368133006536,0.0,0.0,0.0,0.0,0.0,0.0,0.0,0.0,0.0,0
1615423996.165,0,1615423996,164999962,/vehicle_frd,0,0,32.88298124790429,-117.11778039615152,147.67373271537232,0.0,0.0,0.0,0.0,0.0,0.0,0.0,0.0,0.0,0
1615423996.185,0,1615423996,184999943,/vehicle_frd,0,0,32.88298122896848,-117.11778022787576,147.67378417653094,0.0,0.0,0.0,0.0,0.0,0.0,0.0,0.0,0.0,0
1615423996.205,0,1615423996,204999924,/vehicle_frd,0,0,32.88298120963893,-117.11778005587179,147.67383631713082,0.0,0.0,0.0,0.0,0.0,0.0,0.0,0.0,0.0,0
1615423996.225,0,1615423996,224999905,/vehicle_frd,0,0,32.88298119023318,-117.11777988294055,147.6738887830022,0.0,0.0,0.0,0.0,0.0,0.0,0.0,0.0,0.0,0
1615423996.245,0,1615423996,244999886,/vehicle_frd,0,0,32.88298117023096,-117.11777970442625,147.6739430896052,0.0,0.0,0.0,0.0,0.0,0.0,0.0,0.0,0.0,0
1615423996.265,0,1615423996,265000105,/vehicle_frd,0,0,32.88298115592168,-117.11777954408433,147.67282271768374,0.0,0.0,0.0,0.0,0.0,0.0,0.0,0.0,0.0,0
1615423996.285,0,1615423996,285000086,/vehicle_frd,0,0,32.88298113618159,-117.11777936741838,147.67287623298523,0.0,0.0,0.0,0.0,0.0,0.0,0.0,0.0,0.0,0
1615423996.305,0,1615423996,305000067,/vehicle_frd,0,0,32.88298111708975,-117.11777919633009,147.6729276062139,0.0,0.0,0.0,0.0,0.0,0.0,0.0,0.0,0.0,0
1615423996.325,0,1615423996,325000048,/vehicle_frd,0,0,32.88298109802138,-117.11777902523535,147.6729784260026,0.0,0.0,0.0,0.0,0.0,0.0,0.0,0.0,0.0,0
1615423996.345,0,1615423996,345000029,/vehicle_frd,0,0,32.88298107845678,-117.11777884948378,147.67302996068872,0.0,0.0,0.0,0.0,0.0,0.0,0.0,0.0,0.0,0
1615423996.365,0,1615423996,365000010,/vehicle_frd,0,0,32.88298105839498,-117.11777866908656,147.67308170782007,0.0,0.0,0.0,0.0,0.0,0.0,0.0,0.0,0.0,0
1615423996.385,0,1615423996,384999990,/vehicle_frd,0,0,32.88298103856496,-117.11777849054796,147.67313225407946,0.0,0.0,0.0,0.0,0.0,0.0,0.0,0.0,0.0,0
1615423996.405,0,1615423996,404999971,/vehicle_frd,0,0,32.88298101907174,-117.11777831478793,147.67318119878357,0.0,0.0,0.0,0.0,0.0,0.0,0.0,0.0,0.0,0
1615423996.426,0,1615423996,426000118,/vehicle_frd,0,0,32.88298100021911,-117.11777814460956,147.67322794601444,0.0,0.0,0.0,0.0,0.0,0.0,0.0,0.0,0.0,0
1615423996.446,0,1615423996,446000099,/vehicle_frd,0,0,32.88298098180633,-117.1177779781494,147.67327306748228,0.0,0.0,0.0,0.0,0.0,0.0,0.0,0.0,0.0,0
1615423996.466,0,1615423996,466000080,/vehicle_frd,0,0,32.88298096260041,-117.11777780423934,147.6733200395152,0.0,0.0,0.0,0.0,0.0,0.0,0.0,0.0,0.0,0
1615423996.486,0,1615423996,486000061,/vehicle_frd,0,0,32.882980943123584,-117.11777762752938,147.6733676827993,0.0,0.0,0.0,0.0,0.0,0.0,0.0,0.0,0.0,0
1615423996.506,0,1615423996,506000042,/vehicle_frd,0,0,32.88298092316887,-117.11777744616256,147.67341661098504,0.0,0.0,0.0,0.0,0.0,0.0,0.0,0.0,0.0,0
1615423996.526,0,1615423996,526000023,/vehicle_frd,0,0,32.88298090355866,-117.11777726758702,147.673464702493,0.0,0.0,0.0,0.0,0.0,0.0,0.0,0.0,0.0,0
1615423996.546,0,1615423996,546000004,/vehicle_frd,0,0,32.88298088439662,-117.11777709272293,147.67351190850366,0.0,0.0,0.0,0.0,0.0,0.0,0.0,0.0,0.0,0
1615423996.566,0,1615423996,565999985,/vehicle_frd,0,0,32.882980865274625,-117.11777691784717,147.6735590234416,0.0,0.0,0.0,0.0,0.0,0.0,0.0,0.0,0.0,0
1615423996.586,0,1615423996,585999966,/vehicle_frd,0,0,32.882980846495805,-117.1177767457629,147.67360524922128,0.0,0.0,0.0,0.0,0.0,0.0,0.0,0.0,0.0,0
1615423996.606,0,1615423996,605999947,/vehicle_frd,0,0,32.88298082734889,-117.11777656994933,147.67365197484412,0.0,0.0,0.0,0.0,0.0,0.0,0.0,0.0,0.0,0
1615423996.626,0,1615423996,625999928,/vehicle_frd,0,0,32.882980807938274,-117.11777639134036,147.67369887669307,0.0,0.0,0.0,0.0,0.0,0.0,0.0,0.0,0.0,0
1615423996.646,0,1615423996,645999908,/vehicle_frd,0,0,32.88298078886978,-117.11777621551204,147.67374483048224,0.0,0.0,0.0,0.0,0.0,0.0,0.0,0.0,0.0,0
1615423996.666,0,1615423996,665999889,/vehicle_frd,0,0,32.882980769853745,-117.11777603968113,147.67379046180866,0.0,0.0,0.0,0.0,0.0,0.0,0.0,0.0,0.0,0
1615423996.686,0,1615423996,686000109,/vehicle_frd,0,0,32.88298075106524,-117.11777586570697,147.6738353195858,0.0,0.0,0.0,0.0,0.0,0.0,0.0,0.0,0.0,0
1615423996.706,0,1615423996,706000090,/vehicle_frd,0,0,32.882980732012136,-117.11777568893208,147.67388091949465,0.0,0.0,0.0,0.0,0.0,0.0,0.0,0.0,0.0,0
1615423996.726,0,1615423996,726000071,/vehicle_frd,0,0,32.882980712901016,-117.11777551122182,147.67392661142932,0.0,0.0,0.0,0.0,0.0,0.0,0.0,0.0,0.0,0
1615423996.746,0,1615423996,746000051,/vehicle_frd,0,0,32.882980694033556,-117.11777533536853,147.67397177911184,0.0,0.0,0.0,0.0,0.0,0.0,0.0,0.0,0.0,0
1615423996.766,0,1615423996,766000032,/vehicle_frd,0,0,32.88298067491071,-117.11777515671318,147.67401772220296,0.0,0.0,0.0,0.0,0.0,0.0,0.0,0.0,0.0,0
1615423996.786,0,1615423996,786000013,/vehicle_frd,0,0,32.88298065593413,-117.11777497898267,147.67406358310058,0.0,0.0,0.0,0.0,0.0,0.0,0.0,0.0,0.0,0
1615423996.806,0,1615423996,805999994,/vehicle_frd,0,0,32.88298063730384,-117.11777480403782,147.6741084597963,0.0,0.0,0.0,0.0,0.0,0.0,0.0,0.0,0.0,0
1615423996.825,0,1615423996,825000048,/vehicle_frd,0,0,32.88298061862379,-117.11777462815091,147.6741534642509,0.0,0.0,0.0,0.0,0.0,0.0,0.0,0.0,0.0,0
1615423996.845,0,1615423996,845000029,/vehicle_frd,0,0,32.882980683100584,-117.11777444841154,147.6763917188795,0.0,0.0,0.0,0.0,0.0,0.0,0.0,0.0,0.0,0
1615423996.865,0,1615423996,865000010,/vehicle_frd,0,0,32.8829806643278,-117.11777427065061,147.6764362585916,0.0,0.0,0.0,0.0,0.0,0.0,0.0,0.0,0.0,0
1615423996.885,0,1615423996,884999990,/vehicle_frd,0,0,32.882980645807294,-117.11777409474274,147.67648005050296,0.0,0.0,0.0,0.0,0.0,0.0,0.0,0.0,0.0,0
1615423996.905,0,1615423996,904999971,/vehicle_frd,0,0,32.88298062684872,-117.1177739141723,147.67652480975465,0.0,0.0,0.0,0.0,0.0,0.0,0.0,0.0,0.0,0
1615423996.925,0,1615423996,924999952,/vehicle_frd,0,0,32.88298060814053,-117.11777373545524,147.67656869444056,0.0,0.0,0.0,0.0,0.0,0.0,0.0,0.0,0.0,0
1615423996.945,0,1615423996,944999933,/vehicle_frd,0,0,32.88298058958627,-117.11777355766208,147.6766127484855,0.0,0.0,0.0,0.0,0.0,0.0,0.0,0.0,0.0,0
1615423996.965,0,1615423996,964999914,/vehicle_frd,0,0,32.882980571078136,-117.11777337986216,147.6766571200859,0.0,0.0,0.0,0.0,0.0,0.0,0.0,0.0,0.0,0
1615423996.985,0,1615423996,984999895,/vehicle_frd,0,0,32.88298055253365,-117.11777320112117,147.67670158624964,0.0,0.0,0.0,0.0,0.0,0.0,0.0,0.0,0.0,0
1615423997.005,0,1615423997,5000114,/vehicle_frd,0,0,32.88298053405553,-117.1177730223705,147.67674574274758,0.0,0.0,0.0,0.0,0.0,0.0,0.0,0.0,0.0,0
1615423997.025,0,1615423997,25000095,/vehicle_frd,0,0,32.882980515629654,-117.117772843615,147.6767895720794,0.0,0.0,0.0,0.0,0.0,0.0,0.0,0.0,0.0,0
1615423997.045,0,1615423997,45000076,/vehicle_frd,0,0,32.88298049745774,-117.1177726667098,147.67683275128547,0.0,0.0,0.0,0.0,0.0,0.0,0.0,0.0,0.0,0
1615423997.065,0,1615423997,65000057,/vehicle_frd,0,0,32.882980478770946,-117.11777248420702,147.6768772681116,0.0,0.0,0.0,0.0,0.0,0.0,0.0,0.0,0.0,0
1615423997.085,0,1615423997,85000038,/vehicle_frd,0,0,32.8829804606291,-117.11777230635407,147.6769205970288,0.0,0.0,0.0,0.0,0.0,0.0,0.0,0.0,0.0,0
1615423997.105,0,1615423997,105000019,/vehicle_frd,0,0,32.88298044236862,-117.11777212662861,147.67696437415972,0.0,0.0,0.0,0.0,0.0,0.0,0.0,0.0,0.0,0
1615423997.125,0,1615423997,125000000,/vehicle_frd,0,0,32.88298042408692,-117.11777194595737,147.67700847673882,0.0,0.0,0.0,0.0,0.0,0.0,0.0,0.0,0.0,0
1615423997.145,0,1615423997,144999981,/vehicle_frd,0,0,32.88298040589337,-117.1177717652709,147.67705306015085,0.0,0.0,0.0,0.0,0.0,0.0,0.0,0.0,0.0,0
1615423997.165,0,1615423997,164999962,/vehicle_frd,0,0,32.88298038796762,-117.11777158644402,147.67709755299975,0.0,0.0,0.0,0.0,0.0,0.0,0.0,0.0,0.0,0
1615423997.185,0,1615423997,184999943,/vehicle_frd,0,0,32.882980369841654,-117.1177714048104,147.67714263697695,0.0,0.0,0.0,0.0,0.0,0.0,0.0,0.0,0.0,0
1615423997.205,0,1615423997,204999924,/vehicle_frd,0,0,32.88298035180405,-117.11777122315615,147.6771878390789,0.0,0.0,0.0,0.0,0.0,0.0,0.0,0.0,0.0,0
1615423997.225,0,1615423997,224999905,/vehicle_frd,0,0,32.8829803339476,-117.11777104242798,147.67723260278552,0.0,0.0,0.0,0.0,0.0,0.0,0.0,0.0,0.0,0
1615423997.245,0,1615423997,244999886,/vehicle_frd,0,0,32.88298031608868,-117.1177708607572,147.67727717870554,0.0,0.0,0.0,0.0,0.0,0.0,0.0,0.0,0.0,0
1615423997.265,0,1615423997,265000105,/vehicle_frd,0,0,32.882980298339056,-117.11777067906527,147.67732119225437,0.0,0.0,0.0,0.0,0.0,0.0,0.0,0.0,0.0,0
1615423997.285,0,1615423997,285000086,/vehicle_frd,0,0,32.88298028055176,-117.11777049643626,147.6773649835376,0.0,0.0,0.0,0.0,0.0,0.0,0.0,0.0,0.0,0
1615423997.305,0,1615423997,305000067,/vehicle_frd,0,0,32.8829802628472,-117.11777031379872,147.67740820909745,0.0,0.0,0.0,0.0,0.0,0.0,0.0,0.0,0.0,0
1615423997.325,0,1615423997,325000048,/vehicle_frd,0,0,32.88298024504675,-117.1177701292833,147.6774514142607,0.0,0.0,0.0,0.0,0.0,0.0,0.0,0.0,0.0,0
1615423997.345,0,1615423997,345000029,/vehicle_frd,0,0,32.88298022733393,-117.11776994475602,147.67749431528733,0.0,0.0,0.0,0.0,0.0,0.0,0.0,0.0,0.0,0
1615423997.365,0,1615423997,365000010,/vehicle_frd,0,0,32.88298020980161,-117.11776976114979,147.67753668580417,0.0,0.0,0.0,0.0,0.0,0.0,0.0,0.0,0.0,0
1615423997.385,0,1615423997,384999990,/vehicle_frd,0,0,32.88298019227155,-117.11776957659798,147.67757917657266,0.0,0.0,0.0,0.0,0.0,0.0,0.0,0.0,0.0,0
1615423997.405,0,1615423997,404999971,/vehicle_frd,0,0,32.882980174837364,-117.11776939202792,147.67762205052367,0.0,0.0,0.0,0.0,0.0,0.0,0.0,0.0,0.0,0
1615423997.425,0,1615423997,424999952,/vehicle_frd,0,0,32.8829801575964,-117.11776920838297,147.6776654383188,0.0,0.0,0.0,0.0,0.0,0.0,0.0,0.0,0.0,0
1615423997.445,0,1615423997,444999933,/vehicle_frd,0,0,32.88298014011775,-117.1177690209918,147.67771017000774,0.0,0.0,0.0,0.0,0.0,0.0,0.0,0.0,0.0,0
1615423997.465,0,1615423997,464999914,/vehicle_frd,0,0,32.88298017570662,-117.11776885749785,147.6838552732544,0.0,0.0,0.0,0.0,0.0,0.0,0.0,0.0,0.0,0
1615423997.485,0,1615423997,484999895,/vehicle_frd,0,0,32.8829801583443,-117.11776866914671,147.6839013580655,0.0,0.0,0.0,0.0,0.0,0.0,0.0,0.0,0.0,0
1615423997.505,0,1615423997,505000114,/vehicle_frd,0,0,32.882980141353656,-117.11776848358215,147.6839469402815,0.0,0.0,0.0,0.0,0.0,0.0,0.0,0.0,0.0,0
1615423997.525,0,1615423997,525000095,/vehicle_frd,0,0,32.882980124201445,-117.11776829520674,147.68399311118992,0.0,0.0,0.0,0.0,0.0,0.0,0.0,0.0,0.0,0
1615423997.545,0,1615423997,545000076,/vehicle_frd,0,0,32.88298010694458,-117.11776810400778,147.68403974291968,0.0,0.0,0.0,0.0,0.0,0.0,0.0,0.0,0.0,0
1615423997.565,0,1615423997,565000057,/vehicle_frd,0,0,32.88298008976252,-117.11776791280761,147.68408593217873,0.0,0.0,0.0,0.0,0.0,0.0,0.0,0.0,0.0,0
1615423997.585,0,1615423997,585000038,/vehicle_frd,0,0,32.88298007259707,-117.11776772066075,147.68413116050743,0.0,0.0,0.0,0.0,0.0,0.0,0.0,0.0,0.0,0
1615423997.605,0,1615423997,605000019,/vehicle_frd,0,0,32.88298005533326,-117.11776752569264,147.68417562560018,0.0,0.0,0.0,0.0,0.0,0.0,0.0,0.0,0.0,0
1615423997.625,0,1615423997,625000000,/vehicle_frd,0,0,32.882980038581195,-117.1177673353804,147.6842180862765,0.0,0.0,0.0,0.0,0.0,0.0,0.0,0.0,0.0,0
1615423997.645,0,1615423997,644999981,/vehicle_frd,0,0,32.88298002178797,-117.11776714318451,147.68426018195612,0.0,0.0,0.0,0.0,0.0,0.0,0.0,0.0,0.0,0
1615423997.665,0,1615423997,664999962,/vehicle_frd,0,0,32.882980004603596,-117.117766945379,147.68430341074145,0.0,0.0,0.0,0.0,0.0,0.0,0.0,0.0,0.0,0
1615423997.685,0,1615423997,684999943,/vehicle_frd,0,0,32.882979987857624,-117.11776675129435,147.68434643968584,0.0,0.0,0.0,0.0,0.0,0.0,0.0,0.0,0.0,0
1615423997.705,0,1615423997,704999924,/vehicle_frd,0,0,32.882979971128464,-117.11776655531942,147.68439082369093,0.0,0.0,0.0,0.0,0.0,0.0,0.0,0.0,0.0,0
1615423997.725,0,1615423997,724999905,/vehicle_frd,0,0,32.88297995393133,-117.11776635280029,147.68443799084037,0.0,0.0,0.0,0.0,0.0,0.0,0.0,0.0,0.0,0
1615423997.745,0,1615423997,744999886,/vehicle_frd,0,0,32.88297993731082,-117.11776615492725,147.6844857591722,0.0,0.0,0.0,0.0,0.0,0.0,0.0,0.0,0.0,0
1615423997.765,0,1615423997,765000105,/vehicle_frd,0,0,32.882979920994664,-117.11776595890353,147.68453431430981,0.0,0.0,0.0,0.0,0.0,0.0,0.0,0.0,0.0,0
1615423997.785,0,1615423997,785000086,/vehicle_frd,0,0,32.882979904446266,-117.11776575819056,147.6845846290725,0.0,0.0,0.0,0.0,0.0,0.0,0.0,0.0,0.0,0
1615423997.805,0,1615423997,805000067,/vehicle_frd,0,0,32.88297988811151,-117.11776555839944,147.68463505819872,0.0,0.0,0.0,0.0,0.0,0.0,0.0,0.0,0.0,0
1615423997.825,0,1615423997,825000048,/vehicle_frd,0,0,32.882979871707896,-117.11776535579072,147.68468596403255,0.0,0.0,0.0,0.0,0.0,0.0,0.0,0.0,0.0,0
1615423997.845,0,1615423997,845000029,/vehicle_frd,0,0,32.88297985542015,-117.11776515222124,147.68473599615504,0.0,0.0,0.0,0.0,0.0,0.0,0.0,0.0,0.0,0
1615423997.865,0,1615423997,865000010,/vehicle_frd,0,0,32.882979839303495,-117.11776494957738,147.68478468024784,0.0,0.0,0.0,0.0,0.0,0.0,0.0,0.0,0.0,0
1615423997.885,0,1615423997,884999990,/vehicle_frd,0,0,32.882979823573656,-117.11776474971798,147.68483121535726,0.0,0.0,0.0,0.0,0.0,0.0,0.0,0.0,0.0,0
1615423997.905,0,1615423997,904999971,/vehicle_frd,0,0,32.88297980785283,-117.11776454796812,147.6848767211514,0.0,0.0,0.0,0.0,0.0,0.0,0.0,0.0,0.0,0
1615423997.925,0,1615423997,924999952,/vehicle_frd,0,0,32.88297979244564,-117.11776434901107,147.68492040077217,0.0,0.0,0.0,0.0,0.0,0.0,0.0,0.0,0.0,0
1615423997.945,0,1615423997,944999933,/vehicle_frd,0,0,32.882979776944076,-117.11776414630519,147.68496406927085,0.0,0.0,0.0,0.0,0.0,0.0,0.0,0.0,0.0,0
1615423997.965,0,1615423997,964999914,/vehicle_frd,0,0,32.88297976146896,-117.11776394264783,147.685007146566,0.0,0.0,0.0,0.0,0.0,0.0,0.0,0.0,0.0,0
1615423997.985,0,1615423997,984999895,/vehicle_frd,0,0,32.882979746204306,-117.11776373991115,147.68504942916792,0.0,0.0,0.0,0.0,0.0,0.0,0.0,0.0,0.0,0
1615423998.005,0,1615423998,5000114,/vehicle_frd,0,0,32.88297973154193,-117.11776354182062,147.68508960220515,0.0,0.0,0.0,0.0,0.0,0.0,0.0,0.0,0.0,0
1615423998.025,0,1615423998,25000095,/vehicle_frd,0,0,32.88297971673354,-117.11776333997643,147.6851293606603,0.0,0.0,0.0,0.0,0.0,0.0,0.0,0.0,0.0,0
1615423998.045,0,1615423998,45000076,/vehicle_frd,0,0,32.882979702205056,-117.1177631399864,147.6851672700431,0.0,0.0,0.0,0.0,0.0,0.0,0.0,0.0,0.0,0
1615423998.065,0,1615423998,65000057,/vehicle_frd,0,0,32.882979741309384,-117.11776295824274,147.68524223656436,0.0,0.0,0.0,0.0,0.0,0.0,0.0,0.0,0.0,0
1615423998.085,0,1615423998,85000038,/vehicle_frd,0,0,32.882979726767026,-117.1177627535461,147.68527677404558,0.0,0.0,0.0,0.0,0.0,0.0,0.0,0.0,0.0,0
1615423998.105,0,1615423998,105000019,/vehicle_frd,0,0,32.88297971264674,-117.11776255257512,147.68530804317908,0.0,0.0,0.0,0.0,0.0,0.0,0.0,0.0,0.0,0
1615423998.125,0,1615423998,125000000,/vehicle_frd,0,0,32.882979698759264,-117.11776235252651,147.6853366182439,0.0,0.0,0.0,0.0,0.0,0.0,0.0,0.0,0.0,0
1615423998.145,0,1615423998,144999981,/vehicle_frd,0,0,32.88297968482638,-117.11776214965222,147.68536330360047,0.0,0.0,0.0,0.0,0.0,0.0,0.0,0.0,0.0,0
1615423998.165,0,1615423998,164999962,/vehicle_frd,0,0,32.88297967099709,-117.11776194582835,147.68538813015604,0.0,0.0,0.0,0.0,0.0,0.0,0.0,0.0,0.0,0
1615423998.185,0,1615423998,184999943,/vehicle_frd,0,0,32.88297965738555,-117.1177617429261,147.68541118529558,0.0,0.0,0.0,0.0,0.0,0.0,0.0,0.0,0.0,0
1615423998.205,0,1615423998,204999924,/vehicle_frd,0,0,32.882979643745365,-117.11776153719987,147.6854338886286,0.0,0.0,0.0,0.0,0.0,0.0,0.0,0.0,0.0,0
1615423998.225,0,1615423998,224999905,/vehicle_frd,0,0,32.88297963038776,-117.11776133333177,147.68545601805204,0.0,0.0,0.0,0.0,0.0,0.0,0.0,0.0,0.0,0
1615423998.245,0,1615423998,244999886,/vehicle_frd,0,0,32.88297961737675,-117.1177611322555,147.6854772981207,0.0,0.0,0.0,0.0,0.0,0.0,0.0,0.0,0.0,0
1615423998.265,0,1615423998,265000105,/vehicle_frd,0,0,32.88297960434314,-117.11776092835794,147.68549815743216,0.0,0.0,0.0,0.0,0.0,0.0,0.0,0.0,0.0,0
1615423998.285,0,1615423998,285000086,/vehicle_frd,0,0,32.88297959153821,-117.11776072538193,147.6855180606729,0.0,0.0,0.0,0.0,0.0,0.0,0.0,0.0,0.0,0
1615423998.305,0,1615423998,305000067,/vehicle_frd,0,0,32.882979578955165,-117.1177605233255,147.68553685225672,0.0,0.0,0.0,0.0,0.0,0.0,0.0,0.0,0.0,0
1615423998.325,0,1615423998,325000048,/vehicle_frd,0,0,32.88297956637481,-117.11776031844614,147.68555514004407,0.0,0.0,0.0,0.0,0.0,0.0,0.0,0.0,0.0,0
1615423998.345,0,1615423998,345000029,/vehicle_frd,0,0,32.882979553968475,-117.11776011355461,147.68557243449982,0.0,0.0,0.0,0.0,0.0,0.0,0.0,0.0,0.0,0
1615423998.365,0,1615423998,365000010,/vehicle_frd,0,0,32.882979541911446,-117.11775991145312,147.68558819349627,0.0,0.0,0.0,0.0,0.0,0.0,0.0,0.0,0.0,0
1615423998.385,0,1615423998,384999990,/vehicle_frd,0,0,32.882979530025835,-117.11775970933735,147.68560273300434,0.0,0.0,0.0,0.0,0.0,0.0,0.0,0.0,0.0,0
1615423998.405,0,1615423998,404999971,/vehicle_frd,0,0,32.882979518468815,-117.11775951001376,147.68561542213797,0.0,0.0,0.0,0.0,0.0,0.0,0.0,0.0,0.0,0
1615423998.425,0,1615423998,424999952,/vehicle_frd,0,0,32.88297950703773,-117.117759309744,147.68562676093464,0.0,0.0,0.0,0.0,0.0,0.0,0.0,0.0,0.0,0
1615423998.445,0,1615423998,444999933,/vehicle_frd,0,0,32.88297949567584,-117.11775910758315,147.6856371594767,0.0,0.0,0.0,0.0,0.0,0.0,0.0,0.0,0.0,0
1615423998.465,0,1615423998,464999914,/vehicle_frd,0,0,32.882979484414506,-117.11775890353881,147.6856470204281,0.0,0.0,0.0,0.0,0.0,0.0,0.0,0.0,0.0,0
1615423998.485,0,1615423998,484999895,/vehicle_frd,0,0,32.88297947339128,-117.11775870135438,147.68565604114428,0.0,0.0,0.0,0.0,0.0,0.0,0.0,0.0,0.0,0
1615423998.505,0,1615423998,505000114,/vehicle_frd,0,0,32.8829794625118,-117.11775849821505,147.68566425129757,0.0,0.0,0.0,0.0,0.0,0.0,0.0,0.0,0.0,0
1615423998.525,0,1615423998,525000095,/vehicle_frd,0,0,32.88297945188276,-117.11775829694209,147.68567223327022,0.0,0.0,0.0,0.0,0.0,0.0,0.0,0.0,0.0,0
1615423998.545,0,1615423998,545000076,/vehicle_frd,0,0,32.88297944147998,-117.11775809659085,147.6856802000946,0.0,0.0,0.0,0.0,0.0,0.0,0.0,0.0,0.0,0
1615423998.565,0,1615423998,565000057,/vehicle_frd,0,0,32.88297943101737,-117.11775789154146,147.68568777243627,0.0,0.0,0.0,0.0,0.0,0.0,0.0,0.0,0.0,0
1615423998.585,0,1615423998,585000038,/vehicle_frd,0,0,32.882979420973946,-117.1177576911672,147.68569495651843,0.0,0.0,0.0,0.0,0.0,0.0,0.0,0.0,0.0,0
1615423998.605,0,1615423998,605000019,/vehicle_frd,0,0,32.88297941106693,-117.1177574898425,147.6857016014455,0.0,0.0,0.0,0.0,0.0,0.0,0.0,0.0,0.0,0
1615423998.625,0,1615423998,625000000,/vehicle_frd,0,0,32.88297940129923,-117.11775728756191,147.68570740318847,0.0,0.0,0.0,0.0,0.0,0.0,0.0,0.0,0.0,0
1615423998.645,0,1615423998,644999981,/vehicle_frd,0,0,32.88297940278095,-117.11775706663232,147.68428053904864,0.0,0.0,0.0,0.0,0.0,0.0,0.0,0.0,0.0,0
1615423998.665,0,1615423998,664999962,/vehicle_frd,0,0,32.882979393447485,-117.11775686526907,147.68428456902384,0.0,0.0,0.0,0.0,0.0,0.0,0.0,0.0,0.0,0
1615423998.685,0,1615423998,684999943,/vehicle_frd,0,0,32.882979384299546,-117.11775666388837,147.68428778793466,0.0,0.0,0.0,0.0,0.0,0.0,0.0,0.0,0.0,0
1615423998.705,0,1615423998,704999924,/vehicle_frd,0,0,32.88297937533896,-117.11775646249858,147.68429095784688,0.0,0.0,0.0,0.0,0.0,0.0,0.0,0.0,0.0,0
1615423998.725,0,1615423998,724999905,/vehicle_frd,0,0,32.88297936662967,-117.11775626203111,147.68429456054577,0.0,0.0,0.0,0.0,0.0,0.0,0.0,0.0,0.0,0
1615423998.745,0,1615423998,744999886,/vehicle_frd,0,0,32.88297935809367,-117.11775606061268,147.68429856325912,0.0,0.0,0.0,0.0,0.0,0.0,0.0,0.0,0.0,0
1615423998.765,0,1615423998,765000105,/vehicle_frd,0,0,32.882979349724934,-117.11775585918713,147.68430320844556,0.0,0.0,0.0,0.0,0.0,0.0,0.0,0.0,0.0,0
1615423998.785,0,1615423998,785000086,/vehicle_frd,0,0,32.88297934164028,-117.11775565962328,147.684308127623,0.0,0.0,0.0,0.0,0.0,0.0,0.0,0.0,0.0,0
1615423998.805,0,1615423998,805000067,/vehicle_frd,0,0,32.882979333695296,-117.1177554581709,147.68431321635126,0.0,0.0,0.0,0.0,0.0,0.0,0.0,0.0,0.0,0
1615423998.825,0,1615423998,825000048,/vehicle_frd,0,0,32.88297932599894,-117.11775525764521,147.68431811990257,0.0,0.0,0.0,0.0,0.0,0.0,0.0,0.0,0.0,0
1615423998.845,0,1615423998,845000029,/vehicle_frd,0,0,32.88297931856105,-117.1177550580488,147.6843224613658,0.0,0.0,0.0,0.0,0.0,0.0,0.0,0.0,0.0,0
1615423998.865,0,1615423998,865000010,/vehicle_frd,0,0,32.882979311298165,-117.11775485749764,147.6843253149711,0.0,0.0,0.0,0.0,0.0,0.0,0.0,0.0,0.0,0
1615423998.885,0,1615423998,884999990,/vehicle_frd,0,0,32.88297930434702,-117.11775465974856,147.6843265208528,0.0,0.0,0.0,0.0,0.0,0.0,0.0,0.0,0.0,0
1615423998.905,0,1615423998,904999971,/vehicle_frd,0,0,32.88297929762548,-117.11775446292837,147.68432574200853,0.0,0.0,0.0,0.0,0.0,0.0,0.0,0.0,0.0,0
1615423998.925,0,1615423998,924999952,/vehicle_frd,0,0,32.88297929108908,-117.11775426609942,147.68432335796322,0.0,0.0,0.0,0.0,0.0,0.0,0.0,0.0,0.0,0
1615423998.945,0,1615423998,944999933,/vehicle_frd,0,0,32.882979284691494,-117.11775406738411,147.68431970862065,0.0,0.0,0.0,0.0,0.0,0.0,0.0,0.0,0.0,0
1615423998.965,0,1615423998,964999914,/vehicle_frd,0,0,32.88297927849729,-117.11775386866523,147.68431550966426,0.0,0.0,0.0,0.0,0.0,0.0,0.0,0.0,0.0,0
1615423998.985,0,1615423998,984999895,/vehicle_frd,0,0,32.8829792725115,-117.11775366805759,147.68431121495217,0.0,0.0,0.0,0.0,0.0,0.0,0.0,0.0,0.0,0
1615423999.005,0,1615423999,5000114,/vehicle_frd,0,0,32.882979266629675,-117.11775346556865,147.6843073598472,0.0,0.0,0.0,0.0,0.0,0.0,0.0,0.0,0.0,0
1615423999.025,0,1615423999,25000095,/vehicle_frd,0,0,32.88297926113538,-117.11775326869498,147.6843038319553,0.0,0.0,0.0,0.0,0.0,0.0,0.0,0.0,0.0,0
1615423999.045,0,1615423999,45000076,/vehicle_frd,0,0,32.88297925586688,-117.1177530727497,147.6843006504041,0.0,0.0,0.0,0.0,0.0,0.0,0.0,0.0,0.0,0
1615423999.065,0,1615423999,65000057,/vehicle_frd,0,0,32.88297925079539,-117.11775287585562,147.6842976785135,0.0,0.0,0.0,0.0,0.0,0.0,0.0,0.0,0.0,0
1615423999.085,0,1615423999,85000038,/vehicle_frd,0,0,32.882979245984146,-117.1177526817732,147.68429476409318,0.0,0.0,0.0,0.0,0.0,0.0,0.0,0.0,0.0,0
1615423999.105,0,1615423999,105000019,/vehicle_frd,0,0,32.882979241293356,-117.11775248393067,147.68429111936356,0.0,0.0,0.0,0.0,0.0,0.0,0.0,0.0,0.0,0
1615423999.125,0,1615423999,125000000,/vehicle_frd,0,0,32.882979236766985,-117.11775228326658,147.68428642192782,0.0,0.0,0.0,0.0,0.0,0.0,0.0,0.0,0.0,0
1615423999.145,0,1615423999,144999981,/vehicle_frd,0,0,32.88297923254686,-117.11775208728838,147.6842810208347,0.0,0.0,0.0,0.0,0.0,0.0,0.0,0.0,0.0,0
1615423999.165,0,1615423999,164999962,/vehicle_frd,0,0,32.882979228551996,-117.11775189224313,147.68427482359613,0.0,0.0,0.0,0.0,0.0,0.0,0.0,0.0,0.0,0
1615423999.185,0,1615423999,184999943,/vehicle_frd,0,0,32.88297922475203,-117.11775169624737,147.68426775476894,0.0,0.0,0.0,0.0,0.0,0.0,0.0,0.0,0.0,0
1615423999.205,0,1615423999,204999924,/vehicle_frd,0,0,32.88297922125006,-117.1177515049414,147.68426020478546,0.0,0.0,0.0,0.0,0.0,0.0,0.0,0.0,0.0,0
1615423999.225,0,1615423999,224999905,/vehicle_frd,0,0,32.88297921789379,-117.11775131081325,147.6842519682908,0.0,0.0,0.0,0.0,0.0,0.0,0.0,0.0,0.0,0
1615423999.245,0,1615423999,244999886,/vehicle_frd,0,0,32.88297921470569,-117.11775111386545,147.68424313672944,0.0,0.0,0.0,0.0,0.0,0.0,0.0,0.0,0.0,0
1615423999.265,0,1615423999,265000105,/vehicle_frd,0,0,32.88297923999788,-117.11775089552528,147.68071455108964,0.0,0.0,0.0,0.0,0.0,0.0,0.0,0.0,0.0,0
1615423999.285,0,1615423999,285000086,/vehicle_frd,0,0,32.882979237313606,-117.11775070419795,147.6807047532518,0.0,0.0,0.0,0.0,0.0,0.0,0.0,0.0,0.0,0
1615423999.305,0,1615423999,305000067,/vehicle_frd,0,0,32.88297923480028,-117.1177505100491,147.6806940915818,0.0,0.0,0.0,0.0,0.0,0.0,0.0,0.0,0.0,0
1615423999.325,0,1615423999,325000048,/vehicle_frd,0,0,32.88297923254902,-117.11775032058723,147.68068326950043,0.0,0.0,0.0,0.0,0.0,0.0,0.0,0.0,0.0,0
1615423999.345,0,1615423999,345000029,/vehicle_frd,0,0,32.882979230508326,-117.11775013112477,147.68067167360164,0.0,0.0,0.0,0.0,0.0,0.0,0.0,0.0,0.0,0
1615423999.365,0,1615423999,365000010,/vehicle_frd,0,0,32.88297922864553,-117.11774993790227,147.68065910738247,0.0,0.0,0.0,0.0,0.0,0.0,0.0,0.0,0.0,0
1615423999.385,0,1615423999,384999990,/vehicle_frd,0,0,32.882979227028905,-117.11774974655538,147.68064601415603,0.0,0.0,0.0,0.0,0.0,0.0,0.0,0.0,0.0,0
1615423999.405,0,1615423999,404999971,/vehicle_frd,0,0,32.88297922561554,-117.11774955426961,147.68063275194137,0.0,0.0,0.0,0.0,0.0,0.0,0.0,0.0,0.0,0
1615423999.425,0,1615423999,424999952,/vehicle_frd,0,0,32.88297922442425,-117.11774935916925,147.6806194702263,0.0,0.0,0.0,0.0,0.0,0.0,0.0,0.0,0.0,0
1615423999.445,0,1615423999,444999933,/vehicle_frd,0,0,32.882979223467,-117.1177491668768,147.68060705302238,0.0,0.0,0.0,0.0,0.0,0.0,0.0,0.0,0.0,0
1615423999.465,0,1615423999,464999914,/vehicle_frd,0,0,32.882979222756525,-117.11774897834006,147.68059605653008,0.0,0.0,0.0,0.0,0.0,0.0,0.0,0.0,0.0,0
1615423999.485,0,1615423999,484999895,/vehicle_frd,0,0,32.8829792222332,-117.11774878698455,147.68058589059996,0.0,0.0,0.0,0.0,0.0,0.0,0.0,0.0,0.0,0
1615423999.505,0,1615423999,505000114,/vehicle_frd,0,0,32.882979221937184,-117.11774859469179,147.68057671428875,0.0,0.0,0.0,0.0,0.0,0.0,0.0,0.0,0.0,0
1615423999.525,0,1615423999,525000095,/vehicle_frd,0,0,32.8829792218445,-117.11774840521663,147.68056832388555,0.0,0.0,0.0,0.0,0.0,0.0,0.0,0.0,0.0,0
1615423999.545,0,1615423999,545000076,/vehicle_frd,0,0,32.88297922198479,-117.11774821573877,147.68055968286222,0.0,0.0,0.0,0.0,0.0,0.0,0.0,0.0,0.0,0
1615423999.565,0,1615423999,565000057,/vehicle_frd,0,0,32.88297922231772,-117.1177480234461,147.68054997080068,0.0,0.0,0.0,0.0,0.0,0.0,0.0,0.0,0.0,0
1615423999.585,0,1615423999,585000038,/vehicle_frd,0,0,32.882979222846025,-117.11774783490851,147.68053916077218,0.0,0.0,0.0,0.0,0.0,0.0,0.0,0.0,0.0,0
1615423999.605,0,1615423999,605000019,/vehicle_frd,0,0,32.88297922358236,-117.11774764824507,147.68052656873738,0.0,0.0,0.0,0.0,0.0,0.0,0.0,0.0,0.0,0
1615423999.625,0,1615423999,625000000,/vehicle_frd,0,0,32.88297922454134,-117.11774745595265,147.68051157025002,0.0,0.0,0.0,0.0,0.0,0.0,0.0,0.0,0.0,0
1615423999.645,0,1615423999,644999981,/vehicle_frd,0,0,32.88297922568921,-117.11774726929215,147.6804952811886,0.0,0.0,0.0,0.0,0.0,0.0,0.0,0.0,0.0,0
1615423999.665,0,1615423999,664999962,/vehicle_frd,0,0,32.88297922707308,-117.11774708357036,147.68047780432997,0.0,0.0,0.0,0.0,0.0,0.0,0.0,0.0,0.0,0
1615423999.685,0,1615423999,684999943,/vehicle_frd,0,0,32.88297922867002,-117.1177468931544,147.68045897106106,0.0,0.0,0.0,0.0,0.0,0.0,0.0,0.0,0.0,0
1615423999.705,0,1615423999,704999924,/vehicle_frd,0,0,32.88297923042669,-117.11774670931591,147.68044042876093,0.0,0.0,0.0,0.0,0.0,0.0,0.0,0.0,0.0,0
1615423999.725,0,1615423999,724999905,/vehicle_frd,0,0,32.8829792323971,-117.11774652641711,147.68042187390165,0.0,0.0,0.0,0.0,0.0,0.0,0.0,0.0,0.0,0
1615423999.745,0,1615423999,744999886,/vehicle_frd,0,0,32.88297923462655,-117.11774633976763,147.68040257524086,0.0,0.0,0.0,0.0,0.0,0.0,0.0,0.0,0.0,0
1615423999.765,0,1615423999,765000105,/vehicle_frd,0,0,32.88297923706591,-117.11774615499795,147.68038335314725,0.0,0.0,0.0,0.0,0.0,0.0,0.0,0.0,0.0,0
1615423999.785,0,1615423999,785000086,/vehicle_frd,0,0,32.88297923971183,-117.11774597117443,147.68036397289018,0.0,0.0,0.0,0.0,0.0,0.0,0.0,0.0,0.0,0
1615423999.805,0,1615423999,805000067,/vehicle_frd,0,0,32.88297924259587,-117.11774578641375,147.6803439006158,0.0,0.0,0.0,0.0,0.0,0.0,0.0,0.0,0.0,0
1615423999.825,0,1615423999,825000048,/vehicle_frd,0,0,32.88297924569467,-117.11774560071574,147.68032291127383,0.0,0.0,0.0,0.0,0.0,0.0,0.0,0.0,0.0,0
1615423999.845,0,1615423999,845000029,/vehicle_frd,0,0,32.88297924891806,-117.11774542065773,147.68030192745698,0.0,0.0,0.0,0.0,0.0,0.0,0.0,0.0,0.0,0
1615423999.865,0,1615423999,865000010,/vehicle_frd,0,0,32.88297929215798,-117.11774522214812,147.68689887779146,0.0,0.0,0.0,0.0,0.0,0.0,0.0,0.0,0.0,0
1615423999.885,0,1615423999,884999990,/vehicle_frd,0,0,32.882979295865894,-117.1177450383449,147.68687536681628,0.0,0.0,0.0,0.0,0.0,0.0,0.0,0.0,0.0,0
1615423999.905,0,1615423999,904999971,/vehicle_frd,0,0,32.88297929967044,-117.11774485923969,147.68685151286365,0.0,0.0,0.0,0.0,0.0,0.0,0.0,0.0,0.0,0
1615423999.925,0,1615423999,924999952,/vehicle_frd,0,0,32.88297930369739,-117.11774467920718,147.68682651505452,0.0,0.0,0.0,0.0,0.0,0.0,0.0,0.0,0.0,0
1615423999.945,0,1615423999,944999933,/vehicle_frd,0,0,32.882979308121854,-117.11774449542635,147.68680071005832,0.0,0.0,0.0,0.0,0.0,0.0,0.0,0.0,0.0,0
1615423999.965,0,1615423999,964999914,/vehicle_frd,0,0,32.88297931275887,-117.11774431541171,147.68677510949433,0.0,0.0,0.0,0.0,0.0,0.0,0.0,0.0,0.0,0
1615423999.985,0,1615423999,984999895,/vehicle_frd,0,0,32.882979317417,-117.11774413821159,147.6867502545395,0.0,0.0,0.0,0.0,0.0,0.0,0.0,0.0,0.0,0
1615424000.005,0,1615424000,5000114,/vehicle_frd,0,0,32.882979322277315,-117.11774395819974,147.68672550390755,0.0,0.0,0.0,0.0,0.0,0.0,0.0,0.0,0.0,0
1615424000.025,0,1615424000,25000095,/vehicle_frd,0,0,32.88297932717729,-117.11774378383095,147.6867017367035,0.0,0.0,0.0,0.0,0.0,0.0,0.0,0.0,0.0,0
1615424000.045,0,1615424000,45000076,/vehicle_frd,0,0,32.88297933205263,-117.11774361791974,147.6866791819922,0.0,0.0,0.0,0.0,0.0,0.0,0.0,0.0,0.0,0
1615424000.065,0,1615424000,65000057,/vehicle_frd,0,0,32.88297933701531,-117.11774345576356,147.68665666333487,0.0,0.0,0.0,0.0,0.0,0.0,0.0,0.0,0.0,0
1615424000.085,0,1615424000,85000038,/vehicle_frd,0,0,32.8829793427086,-117.11774327766045,147.6866314093164,0.0,0.0,0.0,0.0,0.0,0.0,0.0,0.0,0.0,0
1615424000.105,0,1615424000,105000019,/vehicle_frd,0,0,32.882979348171276,-117.11774311174754,147.68660753020316,0.0,0.0,0.0,0.0,0.0,0.0,0.0,0.0,0.0,0
1615424000.125,0,1615424000,125000000,/vehicle_frd,0,0,32.88297935345408,-117.11774295707923,147.68658467569537,0.0,0.0,0.0,0.0,0.0,0.0,0.0,0.0,0.0,0
1615424000.145,0,1615424000,144999981,/vehicle_frd,0,0,32.88297935902517,-117.11774279868378,147.686560866352,0.0,0.0,0.0,0.0,0.0,0.0,0.0,0.0,0.0,0
1615424000.165,0,1615424000,164999962,/vehicle_frd,0,0,32.88297936494455,-117.11774263561611,147.68653552104593,0.0,0.0,0.0,0.0,0.0,0.0,0.0,0.0,0.0,0
1615424000.185,0,1615424000,184999943,/vehicle_frd,0,0,32.882979371648666,-117.11774245663322,147.68650661257627,0.0,0.0,0.0,0.0,0.0,0.0,0.0,0.0,0.0,0
1615424000.205,0,1615424000,204999924,/vehicle_frd,0,0,32.88297937884572,-117.11774227016568,147.68647526540013,0.0,0.0,0.0,0.0,0.0,0.0,0.0,0.0,0.0,0
1615424000.225,0,1615424000,224999905,/vehicle_frd,0,0,32.88297938628683,-117.11774208276303,147.68644297090168,0.0,0.0,0.0,0.0,0.0,0.0,0.0,0.0,0.0,0
1615424000.245,0,1615424000,244999886,/vehicle_frd,0,0,32.88297939374482,-117.11774190008514,147.68641060759242,0.0,0.0,0.0,0.0,0.0,0.0,0.0,0.0,0.0,0
1615424000.265,0,1615424000,265000105,/vehicle_frd,0,0,32.88297940139389,-117.11774171835151,147.68637778508935,0.0,0.0,0.0,0.0,0.0,0.0,0.0,0.0,0.0,0
1615424000.285,0,1615424000,285000086,/vehicle_frd,0,0,32.88297940882947,-117.11774154598167,147.68634679011018,0.0,0.0,0.0,0.0,0.0,0.0,0.0,0.0,0.0,0
1615424000.305,0,1615424000,305000067,/vehicle_frd,0,0,32.88297941631695,-117.11774137643117,147.68631639180563,0.0,0.0,0.0,0.0,0.0,0.0,0.0,0.0,0.0,0
1615424000.325,0,1615424000,325000048,/vehicle_frd,0,0,32.88297942395413,-117.11774120783345,147.68628597988703,0.0,0.0,0.0,0.0,0.0,0.0,0.0,0.0,0.0,0
1615424000.345,0,1615424000,345000029,/vehicle_frd,0,0,32.88297943182872,-117.11774103831034,147.6862550098694,0.0,0.0,0.0,0.0,0.0,0.0,0.0,0.0,0.0,0
1615424000.365,0,1615424000,365000010,/vehicle_frd,0,0,32.88297943979818,-117.1177408706668,147.68622352800855,0.0,0.0,0.0,0.0,0.0,0.0,0.0,0.0,0.0,0
1615424000.385,0,1615424000,384999990,/vehicle_frd,0,0,32.8829794477738,-117.11774070678422,147.68619171371483,0.0,0.0,0.0,0.0,0.0,0.0,0.0,0.0,0.0,0
1615424000.405,0,1615424000,404999971,/vehicle_frd,0,0,32.88297945578832,-117.11774054572155,147.68615924834836,0.0,0.0,0.0,0.0,0.0,0.0,0.0,0.0,0.0,0
1615424000.425,0,1615424000,424999952,/vehicle_frd,0,0,32.88297946340668,-117.11774039588678,147.68612793481893,0.0,0.0,0.0,0.0,0.0,0.0,0.0,0.0,0.0,0
1615424000.445,0,1615424000,444999933,/vehicle_frd,0,0,32.88297947138159,-117.11774024232463,147.68609465216298,0.0,0.0,0.0,0.0,0.0,0.0,0.0,0.0,0.0,0
1615424000.465,0,1615424000,464999914,/vehicle_frd,0,0,32.88297949871903,-117.11774006933744,147.6902298522714,0.0,0.0,0.0,0.0,0.0,0.0,0.0,0.0,0.0,0
1615424000.485,0,1615424000,484999895,/vehicle_frd,0,0,32.882979507279735,-117.11773991114067,147.6901929946072,0.0,0.0,0.0,0.0,0.0,0.0,0.0,0.0,0.0,0
1615424000.505,0,1615424000,505000114,/vehicle_frd,0,0,32.882979516616,-117.11773974171928,147.69015194403036,0.0,0.0,0.0,0.0,0.0,0.0,0.0,0.0,0.0,0
1615424000.525,0,1615424000,525000095,/vehicle_frd,0,0,32.88297952608488,-117.11773957324962,147.69010943585263,0.0,0.0,0.0,0.0,0.0,0.0,0.0,0.0,0.0,0
1615424000.545,0,1615424000,545000076,/vehicle_frd,0,0,32.88297953549281,-117.11773940854081,147.6900666166261,0.0,0.0,0.0,0.0,0.0,0.0,0.0,0.0,0.0,0
1615424000.565,0,1615424000,565000057,/vehicle_frd,0,0,32.88297954506613,-117.11773924385912,147.690023287734,0.0,0.0,0.0,0.0,0.0,0.0,0.0,0.0,0.0,0
1615424000.585,0,1615424000,585000038,/vehicle_frd,0,0,32.882979555025756,-117.1177390754403,147.6899780007427,0.0,0.0,0.0,0.0,0.0,0.0,0.0,0.0,0.0,0
1615424000.605,0,1615424000,605000019,/vehicle_frd,0,0,32.88297956442656,-117.117738919194,147.68993543392716,0.0,0.0,0.0,0.0,0.0,0.0,0.0,0.0,0.0,0
1615424000.625,0,1615424000,625000000,/vehicle_frd,0,0,32.88297957387156,-117.11773876482667,147.68989338302958,0.0,0.0,0.0,0.0,0.0,0.0,0.0,0.0,0.0,0
1615424000.645,0,1615424000,644999981,/vehicle_frd,0,0,32.88297958324849,-117.11773861421241,147.68985229657605,0.0,0.0,0.0,0.0,0.0,0.0,0.0,0.0,0.0,0
1615424000.665,0,1615424000,664999962,/vehicle_frd,0,0,32.88297959265985,-117.11773846547672,147.6898117659082,0.0,0.0,0.0,0.0,0.0,0.0,0.0,0.0,0.0,0
1615424000.685,0,1615424000,684999943,/vehicle_frd,0,0,32.88297960174123,-117.11773832423627,147.68977311386743,0.0,0.0,0.0,0.0,0.0,0.0,0.0,0.0,0.0,0
1615424000.705,0,1615424000,704999924,/vehicle_frd,0,0,32.882979610709334,-117.11773818674551,147.689735150078,0.0,0.0,0.0,0.0,0.0,0.0,0.0,0.0,0.0,0
1615424000.725,0,1615424000,724999905,/vehicle_frd,0,0,32.88297961987887,-117.11773804833399,147.68969631947076,0.0,0.0,0.0,0.0,0.0,0.0,0.0,0.0,0.0,0
1615424000.745,0,1615424000,744999886,/vehicle_frd,0,0,32.88297962937876,-117.11773790713504,147.68965574249495,0.0,0.0,0.0,0.0,0.0,0.0,0.0,0.0,0.0,0
1615424000.765,0,1615424000,765000105,/vehicle_frd,0,0,32.88297963888708,-117.11773776782705,147.68961441711343,0.0,0.0,0.0,0.0,0.0,0.0,0.0,0.0,0.0,0
1615424000.785,0,1615424000,785000086,/vehicle_frd,0,0,32.88297964851562,-117.11773762853072,147.68957190338782,0.0,0.0,0.0,0.0,0.0,0.0,0.0,0.0,0.0,0
1615424000.805,0,1615424000,805000067,/vehicle_frd,0,0,32.882979658335074,-117.1177374883106,147.68952799971441,0.0,0.0,0.0,0.0,0.0,0.0,0.0,0.0,0.0,0
1615424000.825,0,1615424000,825000048,/vehicle_frd,0,0,32.88297966855182,-117.11773734435958,147.68948189387663,0.0,0.0,0.0,0.0,0.0,0.0,0.0,0.0,0.0,0
1615424000.845,0,1615424000,845000029,/vehicle_frd,0,0,32.882979678560034,-117.11773720510095,147.68943622452667,0.0,0.0,0.0,0.0,0.0,0.0,0.0,0.0,0.0,0
1615424000.865,0,1615424000,865000010,/vehicle_frd,0,0,32.88297968857683,-117.1177370677287,147.68938996923055,0.0,0.0,0.0,0.0,0.0,0.0,0.0,0.0,0.0,0
1615424000.885,0,1615424000,884999990,/vehicle_frd,0,0,32.882979698612495,-117.11773693130128,147.68934299589085,0.0,0.0,0.0,0.0,0.0,0.0,0.0,0.0,0.0,0
1615424000.905,0,1615424000,904999971,/vehicle_frd,0,0,32.8829797084699,-117.1177367986187,147.689296414026,0.0,0.0,0.0,0.0,0.0,0.0,0.0,0.0,0.0,0
