Time,header.seq,header.stamp.secs,header.stamp.nsecs,header.frame_id,status.status,status.service,latitude,longitude,altitude,position_covariance_0,position_covariance_1,position_covariance_2,position_covariance_3,position_covariance_4,position_covariance_5,position_covariance_6,position_covariance_7,position_covariance_8,position_covariance_type
1615398000.032,0,1615398000,32000065,/vehicle_frd,0,0,32.88474909135891,-117.12291784498063,146.54567565439902,0.0,0.0,0.0,0.0,0.0,0.0,0.0,0.0,0.0,0
1615398000.052,0,1615398000,52000046,/vehicle_frd,0,0,32.88474910382822,-117.122917773313,146.54135213239513,0.0,0.0,0.0,0.0,0.0,0.0,0.0,0.0,0.0,0
1615398000.072,0,1615398000,72000027,/vehicle_frd,0,0,32.88474911225221,-117.12291765696158,146.54142619052283,0.0,0.0,0.0,0.0,0.0,0.0,0.0,0.0,0.0,0
1615398000.092,0,1615398000,92000008,/vehicle_frd,0,0,32.88474912095928,-117.12291753970155,146.5415006485271,0.0,0.0,0.0,0.0,0.0,0.0,0.0,0.0,0.0,0
1615398000.112,0,1615398000,111999989,/vehicle_frd,0,0,32.88474912980406,-117.12291742339396,146.54157430492802,0.0,0.0,0.0,0.0,0.0,0.0,0.0,0.0,0.0,0
1615398000.132,0,1615398000,131999969,/vehicle_frd,0,0,32.88474913849701,-117.12291731176049,146.54164475991186,0.0,0.0,0.0,0.0,0.0,0.0,0.0,0.0,0.0,0
1615398000.152,0,1615398000,151999950,/vehicle_frd,0,0,32.884749147530044,-117.12291719828812,146.54171708100998,0.0,0.0,0.0,0.0,0.0,0.0,0.0,0.0,0.0,0
1615398000.172,0,1615398000,171999931,/vehicle_frd,0,0,32.8847491570616,-117.12291708111819,146.5417916564541,0.0,0.0,0.0,0.0,0.0,0.0,0.0,0.0,0.0,0
1615398000.192,0,1615398000,191999912,/vehicle_frd,0,0,32.88474916738729,-117.12291695746944,146.5418701902514,0.0,0.0,0.0,0.0,0.0,0.0,0.0,0.0,0.0,0
1615398000.212,0,1615398000,211999893,/vehicle_frd,0,0,32.88474917785771,-117.12291683477676,146.54194809919358,0.0,0.0,0.0,0.0,0.0,0.0,0.0,0.0,0.0,0
1615398000.232,0,1615398000,232000113,/vehicle_frd,0,0,32.88474918815431,-117.12291671675854,146.54202306980608,0.0,0.0,0.0,0.0,0.0,0.0,0.0,0.0,0.0,0
1615398000.252,0,1615398000,252000093,/vehicle_frd,0,0,32.884749198686414,-117.1229165987695,146.54209814343346,0.0,0.0,0.0,0.0,0.0,0.0,0.0,0.0,0.0,0
1615398000.272,0,1615398000,272000074,/vehicle_frd,0,0,32.88474920951699,-117.12291647987874,146.54217397806573,0.0,0.0,0.0,0.0,0.0,0.0,0.0,0.0,0.0,0
1615398000.292,0,1615398000,292000055,/vehicle_frd,0,0,32.884749221006295,-117.12291635637428,146.54225271654877,0.0,0.0,0.0,0.0,0.0,0.0,0.0,0.0,0.0,0
1615398000.312,0,1615398000,312000036,/vehicle_frd,0,0,32.884749232818834,-117.12291623197248,146.5423319861021,0.0,0.0,0.0,0.0,0.0,0.0,0.0,0.0,0.0,0
1615398000.332,0,1615398000,332000017,/vehicle_frd,0,0,32.88474924496368,-117.1229161066752,146.54241171769678,0.0,0.0,0.0,0.0,0.0,0.0,0.0,0.0,0.0,0
1615398000.352,0,1615398000,351999998,/vehicle_frd,0,0,32.884749257343735,-117.12291598141026,146.5424913797326,0.0,0.0,0.0,0.0,0.0,0.0,0.0,0.0,0.0,0
1615398000.372,0,1615398000,371999979,/vehicle_frd,0,0,32.88474926995971,-117.12291585617837,146.54257078299133,0.0,0.0,0.0,0.0,0.0,0.0,0.0,0.0,0.0,0
1615398000.392,0,1615398000,391999960,/vehicle_frd,0,0,32.88474928270872,-117.12291573190643,146.54264929369822,0.0,0.0,0.0,0.0,0.0,0.0,0.0,0.0,0.0,0
1615398000.412,0,1615398000,411999941,/vehicle_frd,0,0,32.884749295895276,-117.12291560581573,146.54272974714075,0.0,0.0,0.0,0.0,0.0,0.0,0.0,0.0,0.0,0
1615398000.432,0,1615398000,431999922,/vehicle_frd,0,0,32.88474930960266,-117.12291547697765,146.5428116050075,0.0,0.0,0.0,0.0,0.0,0.0,0.0,0.0,0.0,0
1615398000.452,0,1615398000,451999903,/vehicle_frd,0,0,32.88474932385128,-117.12291534352744,146.54289605786647,0.0,0.0,0.0,0.0,0.0,0.0,0.0,0.0,0.0,0
1615398000.472,0,1615398000,471999884,/vehicle_frd,0,0,32.88474933830895,-117.12291521291995,146.542978846606,0.0,0.0,0.0,0.0,0.0,0.0,0.0,0.0,0.0,0
1615398000.492,0,1615398000,492000103,/vehicle_frd,0,0,32.88474935277603,-117.12291508419861,146.54306044348084,0.0,0.0,0.0,0.0,0.0,0.0,0.0,0.0,0.0,0
1615398000.512,0,1615398000,512000084,/vehicle_frd,0,0,32.884749367353784,-117.12291495643746,146.54314158877048,0.0,0.0,0.0,0.0,0.0,0.0,0.0,0.0,0.0,0
1615398000.532,0,1615398000,532000065,/vehicle_frd,0,0,32.88474938270356,-117.1229148240867,146.54322580904352,0.0,0.0,0.0,0.0,0.0,0.0,0.0,0.0,0.0,0
1615398000.552,0,1615398000,552000046,/vehicle_frd,0,0,32.88474939884889,-117.12291468715082,146.54331312366753,0.0,0.0,0.0,0.0,0.0,0.0,0.0,0.0,0.0,0
1615398000.572,0,1615398000,572000027,/vehicle_frd,0,0,32.88474941525976,-117.12291455025931,146.54340060045627,0.0,0.0,0.0,0.0,0.0,0.0,0.0,0.0,0.0,0
1615398000.592,0,1615398000,592000008,/vehicle_frd,0,0,32.884749431714766,-117.12291441526285,146.5434872210299,0.0,0.0,0.0,0.0,0.0,0.0,0.0,0.0,0.0,0
1615398000.612,0,1615398000,611999989,/vehicle_frd,0,0,32.88474944832105,-117.12291428123666,146.54357381168893,0.0,0.0,0.0,0.0,0.0,0.0,0.0,0.0,0.0,0
1615398000.632,0,1615398000,631999969,/vehicle_frd,0,0,32.88474946553995,-117.12291414448474,146.5436627289152,0.0,0.0,0.0,0.0,0.0,0.0,0.0,0.0,0.0,0
1615398000.652,0,1615398000,651999950,/vehicle_frd,0,0,32.884749483034376,-117.12291400778196,146.54375187212793,0.0,0.0,0.0,0.0,0.0,0.0,0.0,0.0,0.0,0
1615398000.672,0,1615398000,671999931,/vehicle_frd,0,0,32.88474945680213,-117.12291391202537,146.54565015779278,0.0,0.0,0.0,0.0,0.0,0.0,0.0,0.0,0.0,0
1615398000.692,0,1615398000,691999912,/vehicle_frd,0,0,32.88474947531369,-117.12291377172747,146.54574319206353,0.0,0.0,0.0,0.0,0.0,0.0,0.0,0.0,0.0,0
1615398000.712,0,1615398000,711999893,/vehicle_frd,0,0,32.884749494466234,-117.12291362871196,146.54583781332406,0.0,0.0,0.0,0.0,0.0,0.0,0.0,0.0,0.0,0
1615398000.732,0,1615398000,732000113,/vehicle_frd,0,0,32.884749513392364,-117.12291348943789,146.54592945647846,0.0,0.0,0.0,0.0,0.0,0.0,0.0,0.0,0.0,0
1615398000.752,0,1615398000,752000093,/vehicle_frd,0,0,32.88474953259237,-117.12291335021644,146.54602052589388,0.0,0.0,0.0,0.0,0.0,0.0,0.0,0.0,0.0,0
1615398000.772,0,1615398000,772000074,/vehicle_frd,0,0,32.884749553340455,-117.12291320182891,146.5461168159449,0.0,0.0,0.0,0.0,0.0,0.0,0.0,0.0,0.0,0
1615398000.792,0,1615398000,792000055,/vehicle_frd,0,0,32.88474957437111,-117.1229130534972,146.54621208710137,0.0,0.0,0.0,0.0,0.0,0.0,0.0,0.0,0.0,0
1615398000.812,0,1615398000,812000036,/vehicle_frd,0,0,32.88474959541499,-117.12291290706308,146.54630532503765,0.0,0.0,0.0,0.0,0.0,0.0,0.0,0.0,0.0,0
1615398000.832,0,1615398000,832000017,/vehicle_frd,0,0,32.884749616352316,-117.12291276345091,146.5463962641289,0.0,0.0,0.0,0.0,0.0,0.0,0.0,0.0,0.0,0
1615398000.852,0,1615398000,851999998,/vehicle_frd,0,0,32.88474963824279,-117.12291261529391,146.54648970228882,0.0,0.0,0.0,0.0,0.0,0.0,0.0,0.0,0.0,0
1615398000.872,0,1615398000,871999979,/vehicle_frd,0,0,32.884749660836974,-117.122912464438,146.5465846954543,0.0,0.0,0.0,0.0,0.0,0.0,0.0,0.0,0.0,0
1615398000.892,0,1615398000,891999960,/vehicle_frd,0,0,32.88474968372883,-117.12291231364516,146.54667954761817,0.0,0.0,0.0,0.0,0.0,0.0,0.0,0.0,0.0,0
1615398000.912,0,1615398000,911999941,/vehicle_frd,0,0,32.88474970733602,-117.12291216015753,146.54677584100165,0.0,0.0,0.0,0.0,0.0,0.0,0.0,0.0,0.0,0
1615398000.932,0,1615398000,931999922,/vehicle_frd,0,0,32.88474973168361,-117.12291200398155,146.5468753259582,0.0,0.0,0.0,0.0,0.0,0.0,0.0,0.0,0.0,0
1615398000.952,0,1615398000,951999903,/vehicle_frd,0,0,32.884749755620895,-117.12291185246639,146.54697178778312,0.0,0.0,0.0,0.0,0.0,0.0,0.0,0.0,0.0,0
1615398000.972,0,1615398000,971999884,/vehicle_frd,0,0,32.88474978029491,-117.12291169826374,146.54706988528812,0.0,0.0,0.0,0.0,0.0,0.0,0.0,0.0,0.0,0
1615398000.992,0,1615398000,992000103,/vehicle_frd,0,0,32.88474980585573,-117.12291154045725,146.5471699869494,0.0,0.0,0.0,0.0,0.0,0.0,0.0,0.0,0.0,0
1615398001.012,0,1615398001,12000084,/vehicle_frd,0,0,32.88474983202165,-117.12291138088625,146.5472708266291,0.0,0.0,0.0,0.0,0.0,0.0,0.0,0.0,0.0,0
1615398001.032,0,1615398001,32000065,/vehicle_frd,0,0,32.884749858346716,-117.12291122230404,146.5473706681213,0.0,0.0,0.0,0.0,0.0,0.0,0.0,0.0,0.0,0
1615398001.052,0,1615398001,52000046,/vehicle_frd,0,0,32.88474988528891,-117.12291106102192,146.54747173284696,0.0,0.0,0.0,0.0,0.0,0.0,0.0,0.0,0.0,0
1615398001.072,0,1615398001,72000027,/vehicle_frd,0,0,32.88474991298277,-117.12291089799976,146.54757353178135,0.0,0.0,0.0,0.0,0.0,0.0,0.0,0.0,0.0,0
1615398001.092,0,1615398001,92000008,/vehicle_frd,0,0,32.88474994051028,-117.12291073779721,146.54767325034578,0.0,0.0,0.0,0.0,0.0,0.0,0.0,0.0,0.0,0
1615398001.112,0,1615398001,111999989,/vehicle_frd,0,0,32.88474996883001,-117.12291057492611,146.54777437248595,0.0,0.0,0.0,0.0,0.0,0.0,0.0,0.0,0.0,0
1615398001.132,0,1615398001,131999969,/vehicle_frd,0,0,32.88474999855835,-117.12291040572232,146.54787918875002,0.0,0.0,0.0,0.0,0.0,0.0,0.0,0.0,0.0,0
1615398001.152,0,1615398001,151999950,/vehicle_frd,0,0,32.884750028609936,-117.12291023659876,146.54798371851544,0.0,0.0,0.0,0.0,0.0,0.0,0.0,0.0,0.0,0
1615398001.172,0,1615398001,171999931,/vehicle_frd,0,0,32.88475005865801,-117.12291006938418,146.5480864713256,0.0,0.0,0.0,0.0,0.0,0.0,0.0,0.0,0.0,0
1615398001.192,0,1615398001,191999912,/vehicle_frd,0,0,32.88475008901097,-117.12290990224706,146.5481907546707,0.0,0.0,0.0,0.0,0.0,0.0,0.0,0.0,0.0,0
1615398001.212,0,1615398001,211999893,/vehicle_frd,0,0,32.88475011981787,-117.12290973427044,146.5482952067748,0.0,0.0,0.0,0.0,0.0,0.0,0.0,0.0,0.0,0
1615398001.232,0,1615398001,232000113,/vehicle_frd,0,0,32.88475015161441,-117.12290956272497,146.54840133683234,0.0,0.0,0.0,0.0,0.0,0.0,0.0,0.0,0.0,0
1615398001.252,0,1615398001,252000093,/vehicle_frd,0,0,32.8847501673641,-117.12290943503609,146.54819262332208,0.0,0.0,0.0,0.0,0.0,0.0,0.0,0.0,0.0,0
1615398001.272,0,1615398001,272000074,/vehicle_frd,0,0,32.88475020086134,-117.12290925819634,146.54830131417137,0.0,0.0,0.0,0.0,0.0,0.0,0.0,0.0,0.0,0
1615398001.292,0,1615398001,292000055,/vehicle_frd,0,0,32.88475023431643,-117.1229090832607,146.54840839788704,0.0,0.0,0.0,0.0,0.0,0.0,0.0,0.0,0.0,0
1615398001.312,0,1615398001,312000036,/vehicle_frd,0,0,32.88475026808774,-117.1229089084104,146.54851506129975,0.0,0.0,0.0,0.0,0.0,0.0,0.0,0.0,0.0,0
1615398001.332,0,1615398001,332000017,/vehicle_frd,0,0,32.88475030272127,-117.12290873091926,146.54862308364187,0.0,0.0,0.0,0.0,0.0,0.0,0.0,0.0,0.0,0
1615398001.352,0,1615398001,351999998,/vehicle_frd,0,0,32.88475033801948,-117.12290855169287,146.54873149011337,0.0,0.0,0.0,0.0,0.0,0.0,0.0,0.0,0.0,0
1615398001.372,0,1615398001,371999979,/vehicle_frd,0,0,32.88475037418268,-117.1229083698281,146.5488404935145,0.0,0.0,0.0,0.0,0.0,0.0,0.0,0.0,0.0,0
1615398001.392,0,1615398001,391999960,/vehicle_frd,0,0,32.884750411207776,-117.12290818532493,146.54895015213447,0.0,0.0,0.0,0.0,0.0,0.0,0.0,0.0,0.0,0
1615398001.412,0,1615398001,411999941,/vehicle_frd,0,0,32.88475044873061,-117.12290800000206,146.54905897285897,0.0,0.0,0.0,0.0,0.0,0.0,0.0,0.0,0.0,0
1615398001.432,0,1615398001,431999922,/vehicle_frd,0,0,32.88475048594101,-117.12290781747274,146.54916473265945,0.0,0.0,0.0,0.0,0.0,0.0,0.0,0.0,0.0,0
1615398001.452,0,1615398001,451999903,/vehicle_frd,0,0,32.88475052446497,-117.12290763051465,146.54927456798052,0.0,0.0,0.0,0.0,0.0,0.0,0.0,0.0,0.0,0
1615398001.472,0,1615398001,471999884,/vehicle_frd,0,0,32.88475056366432,-117.12290744182893,146.54938391215637,0.0,0.0,0.0,0.0,0.0,0.0,0.0,0.0,0.0,0
1615398001.492,0,1615398001,492000103,/vehicle_frd,0,0,32.884750603726225,-117.12290725050873,146.5494929334984,0.0,0.0,0.0,0.0,0.0,0.0,0.0,0.0,0.0,0
1615398001.512,0,1615398001,512000084,/vehicle_frd,0,0,32.88475064486819,-117.12290705565617,146.54960206440012,0.0,0.0,0.0,0.0,0.0,0.0,0.0,0.0,0.0,0
1615398001.532,0,1615398001,532000065,/vehicle_frd,0,0,32.884750685905686,-117.12290686269888,146.54970829758076,0.0,0.0,0.0,0.0,0.0,0.0,0.0,0.0,0.0,0
1615398001.552,0,1615398001,552000046,/vehicle_frd,0,0,32.88475072745139,-117.12290666893026,146.54981293557825,0.0,0.0,0.0,0.0,0.0,0.0,0.0,0.0,0.0,0
1615398001.572,0,1615398001,572000027,/vehicle_frd,0,0,32.88475077005439,-117.12290647162452,146.54991800221563,0.0,0.0,0.0,0.0,0.0,0.0,0.0,0.0,0.0,0
1615398001.592,0,1615398001,592000008,/vehicle_frd,0,0,32.88475081335093,-117.12290627260066,146.55002244878398,0.0,0.0,0.0,0.0,0.0,0.0,0.0,0.0,0.0,0
1615398001.612,0,1615398001,611999989,/vehicle_frd,0,0,32.88475085736548,-117.12290607186695,146.55012644263397,0.0,0.0,0.0,0.0,0.0,0.0,0.0,0.0,0.0,0
1615398001.632,0,1615398001,631999969,/vehicle_frd,0,0,32.88475090271297,-117.12290586671776,146.55023160286783,0.0,0.0,0.0,0.0,0.0,0.0,0.0,0.0,0.0,0
1615398001.652,0,1615398001,651999950,/vehicle_frd,0,0,32.884750947527586,-117.12290566432598,146.55033459782425,0.0,0.0,0.0,0.0,0.0,0.0,0.0,0.0,0.0,0
1615398001.672,0,1615398001,671999931,/vehicle_frd,0,0,32.88475099408681,-117.12290545665705,146.55044003104592,0.0,0.0,0.0,0.0,0.0,0.0,0.0,0.0,0.0,0
1615398001.692,0,1615398001,691999912,/vehicle_frd,0,0,32.8847510419325,-117.1229052445602,146.5505477170576,0.0,0.0,0.0,0.0,0.0,0.0,0.0,0.0,0.0,0
1615398001.712,0,1615398001,711999893,/vehicle_frd,0,0,32.88475108950066,-117.12290503527717,146.55065769303195,0.0,0.0,0.0,0.0,0.0,0.0,0.0,0.0,0.0,0
1615398001.732,0,1615398001,732000113,/vehicle_frd,0,0,32.88475113755674,-117.12290482518269,146.55076867221916,0.0,0.0,0.0,0.0,0.0,0.0,0.0,0.0,0.0,0
1615398001.752,0,1615398001,752000093,/vehicle_frd,0,0,32.88475118615938,-117.1229046142963,146.55088063883056,0.0,0.0,0.0,0.0,0.0,0.0,0.0,0.0,0.0,0
1615398001.772,0,1615398001,772000074,/vehicle_frd,0,0,32.884751235582925,-117.12290440077045,146.5509944878206,0.0,0.0,0.0,0.0,0.0,0.0,0.0,0.0,0.0,0
1615398001.792,0,1615398001,792000055,/vehicle_frd,0,0,32.884751286569504,-117.12290418194058,146.55111116845492,0.0,0.0,0.0,0.0,0.0,0.0,0.0,0.0,0.0,0
1615398001.813,0,1615398001,812999964,/vehicle_frd,0,0,32.884751338422895,-117.12290396048691,146.55122822565698,0.0,0.0,0.0,0.0,0.0,0.0,0.0,0.0,0.0,0
1615398001.833,0,1615398001,832999945,/vehicle_frd,0,0,32.88475139015881,-117.12290374093395,146.5513434650741,0.0,0.0,0.0,0.0,0.0,0.0,0.0,0.0,0.0,0
1615398001.853,0,1615398001,852999926,/vehicle_frd,0,0,32.88475137721621,-117.12290351926718,146.55760980737406,0.0,0.0,0.0,0.0,0.0,0.0,0.0,0.0,0.0,0
1615398001.873,0,1615398001,872999907,/vehicle_frd,0,0,32.8847514292653,-117.12290330078869,146.5577213608131,0.0,0.0,0.0,0.0,0.0,0.0,0.0,0.0,0.0,0
1615398001.893,0,1615398001,892999887,/vehicle_frd,0,0,32.88475148285819,-117.12290307700232,146.55783370472537,0.0,0.0,0.0,0.0,0.0,0.0,0.0,0.0,0.0,0
1615398001.913,0,1615398001,913000107,/vehicle_frd,0,0,32.88475153753032,-117.12290284969446,146.55794568512042,0.0,0.0,0.0,0.0,0.0,0.0,0.0,0.0,0.0,0
1615398001.933,0,1615398001,933000088,/vehicle_frd,0,0,32.88475159246072,-117.12290262247392,146.5580551623052,0.0,0.0,0.0,0.0,0.0,0.0,0.0,0.0,0.0,0
1615398001.953,0,1615398001,953000069,/vehicle_frd,0,0,32.88475164851067,-117.12290239174627,146.55816362946632,0.0,0.0,0.0,0.0,0.0,0.0,0.0,0.0,0.0,0
1615398001.973,0,1615398001,973000050,/vehicle_frd,0,0,32.88475170372447,-117.12290216559457,146.55827153399088,0.0,0.0,0.0,0.0,0.0,0.0,0.0,0.0,0.0,0
1615398001.993,0,1615398001,993000031,/vehicle_frd,0,0,32.884751759566846,-117.12290193771325,146.55837703076833,0.0,0.0,0.0,0.0,0.0,0.0,0.0,0.0,0.0,0
1615398002.013,0,1615398002,13000011,/vehicle_frd,0,0,32.88475181632507,-117.1229017072287,146.55848073378007,0.0,0.0,0.0,0.0,0.0,0.0,0.0,0.0,0.0,0
1615398002.033,0,1615398002,32999992,/vehicle_frd,0,0,32.88475187365392,-117.12290147499498,146.55858200959722,0.0,0.0,0.0,0.0,0.0,0.0,0.0,0.0,0.0,0
1615398002.053,0,1615398002,52999973,/vehicle_frd,0,0,32.884751932933945,-117.12290123565059,146.55868267248545,0.0,0.0,0.0,0.0,0.0,0.0,0.0,0.0,0.0,0
1615398002.073,0,1615398002,72999954,/vehicle_frd,0,0,32.88475199184114,-117.12290099909751,146.55877915083886,0.0,0.0,0.0,0.0,0.0,0.0,0.0,0.0,0.0,0
1615398002.093,0,1615398002,92999935,/vehicle_frd,0,0,32.88475205090053,-117.12290076259761,146.55887270260632,0.0,0.0,0.0,0.0,0.0,0.0,0.0,0.0,0.0,0
1615398002.113,0,1615398002,112999916,/vehicle_frd,0,0,32.884752110597105,-117.12290052437261,146.5589643266306,0.0,0.0,0.0,0.0,0.0,0.0,0.0,0.0,0.0,0
1615398002.133,0,1615398002,132999897,/vehicle_frd,0,0,32.88475217070526,-117.12290028531791,146.55905392852657,0.0,0.0,0.0,0.0,0.0,0.0,0.0,0.0,0.0,0
1615398002.153,0,1615398002,153000116,/vehicle_frd,0,0,32.884752232347694,-117.12290004095601,146.55914311148553,0.0,0.0,0.0,0.0,0.0,0.0,0.0,0.0,0.0,0
1615398002.173,0,1615398002,173000097,/vehicle_frd,0,0,32.88475229462841,-117.12289979487011,146.55923088581108,0.0,0.0,0.0,0.0,0.0,0.0,0.0,0.0,0.0,0
1615398002.193,0,1615398002,193000078,/vehicle_frd,0,0,32.884752357289926,-117.12289954794419,146.55931702917164,0.0,0.0,0.0,0.0,0.0,0.0,0.0,0.0,0.0,0
1615398002.213,0,1615398002,213000059,/vehicle_frd,0,0,32.88475241964443,-117.12289930285999,146.55940047121712,0.0,0.0,0.0,0.0,0.0,0.0,0.0,0.0,0.0,0
1615398002.233,0,1615398002,233000040,/vehicle_frd,0,0,32.88475248193242,-117.12289905872802,146.55948683954273,0.0,0.0,0.0,0.0,0.0,0.0,0.0,0.0,0.0,0
1615398002.253,0,1615398002,253000021,/vehicle_frd,0,0,32.88475254512043,-117.12289881007004,146.55957303251097,0.0,0.0,0.0,0.0,0.0,0.0,0.0,0.0,0.0,0
1615398002.273,0,1615398002,273000002,/vehicle_frd,0,0,32.884752609253155,-117.12289855976707,146.55965793451247,0.0,0.0,0.0,0.0,0.0,0.0,0.0,0.0,0.0,0
1615398002.293,0,1615398002,292999983,/vehicle_frd,0,0,32.8847526746321,-117.12289830503072,146.55974300731867,0.0,0.0,0.0,0.0,0.0,0.0,0.0,0.0,0.0,0
1615398002.313,0,1615398002,312999964,/vehicle_frd,0,0,32.88475274009464,-117.12289805032447,146.55982680674555,0.0,0.0,0.0,0.0,0.0,0.0,0.0,0.0,0.0,0
1615398002.333,0,1615398002,332999945,/vehicle_frd,0,0,32.88475280495084,-117.12289779832922,146.55990930971,0.0,0.0,0.0,0.0,0.0,0.0,0.0,0.0,0.0,0
1615398002.353,0,1615398002,352999926,/vehicle_frd,0,0,32.884752871058645,-117.12289754190273,146.55999270174854,0.0,0.0,0.0,0.0,0.0,0.0,0.0,0.0,0.0,0
1615398002.373,0,1615398002,372999907,/vehicle_frd,0,0,32.884752936992655,-117.12289728639017,146.56007521060798,0.0,0.0,0.0,0.0,0.0,0.0,0.0,0.0,0.0,0
1615398002.393,0,1615398002,392999887,/vehicle_frd,0,0,32.88475300459279,-117.12289702464278,146.56015929228937,0.0,0.0,0.0,0.0,0.0,0.0,0.0,0.0,0.0,0
1615398002.413,0,1615398002,413000107,/vehicle_frd,0,0,32.88475307222438,-117.12289676290676,146.56024228085502,0.0,0.0,0.0,0.0,0.0,0.0,0.0,0.0,0.0,0
1615398002.433,0,1615398002,433000088,/vehicle_frd,0,0,32.884753140586575,-117.12289649850466,146.56032501419634,0.0,0.0,0.0,0.0,0.0,0.0,0.0,0.0,0.0,0
1615398002.453,0,1615398002,453000069,/vehicle_frd,0,0,32.884753180287305,-117.12289618252747,146.56546891796927,0.0,0.0,0.0,0.0,0.0,0.0,0.0,0.0,0.0,0
1615398002.473,0,1615398002,473000050,/vehicle_frd,0,0,32.88475324777285,-117.12289592171528,146.56554793679342,0.0,0.0,0.0,0.0,0.0,0.0,0.0,0.0,0.0,0
1615398002.493,0,1615398002,493000031,/vehicle_frd,0,0,32.88475331664562,-117.1228956555443,146.56563317892272,0.0,0.0,0.0,0.0,0.0,0.0,0.0,0.0,0.0,0
1615398002.513,0,1615398002,513000011,/vehicle_frd,0,0,32.884753385975756,-117.12289538758509,146.56571687768155,0.0,0.0,0.0,0.0,0.0,0.0,0.0,0.0,0.0,0
1615398002.533,0,1615398002,532999992,/vehicle_frd,0,0,32.884753455979386,-117.12289511693902,146.5657996119705,0.0,0.0,0.0,0.0,0.0,0.0,0.0,0.0,0.0,0
1615398002.553,0,1615398002,552999973,/vehicle_frd,0,0,32.88475352525292,-117.12289484895912,146.56587941684114,0.0,0.0,0.0,0.0,0.0,0.0,0.0,0.0,0.0,0
1615398002.573,0,1615398002,572999954,/vehicle_frd,0,0,32.884753594009375,-117.12289458274563,146.56595690781558,0.0,0.0,0.0,0.0,0.0,0.0,0.0,0.0,0.0,0
1615398002.593,0,1615398002,592999935,/vehicle_frd,0,0,32.88475366270036,-117.12289431650835,146.5660327114109,0.0,0.0,0.0,0.0,0.0,0.0,0.0,0.0,0.0,0
1615398002.613,0,1615398002,612999916,/vehicle_frd,0,0,32.884753732923905,-117.12289404398776,146.56610771910715,0.0,0.0,0.0,0.0,0.0,0.0,0.0,0.0,0.0,0
1615398002.633,0,1615398002,632999897,/vehicle_frd,0,0,32.88475380441641,-117.12289376606532,146.5661809984918,0.0,0.0,0.0,0.0,0.0,0.0,0.0,0.0,0.0,0
1615398002.653,0,1615398002,653000116,/vehicle_frd,0,0,32.88475387626164,-117.12289348631688,146.56625177931429,0.0,0.0,0.0,0.0,0.0,0.0,0.0,0.0,0.0,0
1615398002.673,0,1615398002,673000097,/vehicle_frd,0,0,32.88475394753594,-117.12289320831556,146.56631933959773,0.0,0.0,0.0,0.0,0.0,0.0,0.0,0.0,0.0,0
1615398002.693,0,1615398002,693000078,/vehicle_frd,0,0,32.88475401753582,-117.12289293473742,146.56638332880024,0.0,0.0,0.0,0.0,0.0,0.0,0.0,0.0,0.0,0
1615398002.713,0,1615398002,713000059,/vehicle_frd,0,0,32.88475408831145,-117.12289265753304,146.56644648596958,0.0,0.0,0.0,0.0,0.0,0.0,0.0,0.0,0.0,0
1615398002.733,0,1615398002,733000040,/vehicle_frd,0,0,32.88475415848202,-117.12289238206387,146.5665077581059,0.0,0.0,0.0,0.0,0.0,0.0,0.0,0.0,0.0,0
1615398002.753,0,1615398002,753000021,/vehicle_frd,0,0,32.884754231448134,-117.12289209490851,146.56657709877982,0.0,0.0,0.0,0.0,0.0,0.0,0.0,0.0,0.0,0
1615398002.773,0,1615398002,773000002,/vehicle_frd,0,0,32.88475430400262,-117.12289180858197,146.5666449615286,0.0,0.0,0.0,0.0,0.0,0.0,0.0,0.0,0.0,0
1615398002.793,0,1615398002,792999983,/vehicle_frd,0,0,32.88475437635358,-117.12289152218307,146.56671147502158,0.0,0.0,0.0,0.0,0.0,0.0,0.0,0.0,0.0,0
1615398002.813,0,1615398002,812999964,/vehicle_frd,0,0,32.884754447786094,-117.12289123838408,146.56677630664706,0.0,0.0,0.0,0.0,0.0,0.0,0.0,0.0,0.0,0
1615398002.833,0,1615398002,832999945,/vehicle_frd,0,0,32.88475451829394,-117.1228909571831,146.56683982279964,0.0,0.0,0.0,0.0,0.0,0.0,0.0,0.0,0.0,0
1615398002.853,0,1615398002,852999926,/vehicle_frd,0,0,32.884754589345896,-117.1228906732426,146.56690350108482,0.0,0.0,0.0,0.0,0.0,0.0,0.0,0.0,0.0,0
1615398002.873,0,1615398002,872999907,/vehicle_frd,0,0,32.88475466112978,-117.12289038469473,146.56696801514647,0.0,0.0,0.0,0.0,0.0,0.0,0.0,0.0,0.0,0
1615398002.893,0,1615398002,892999887,/vehicle_frd,0,0,32.88475473421066,-117.12289008978216,146.5670338518273,0.0,0.0,0.0,0.0,0.0,0.0,0.0,0.0,0.0,0
1615398002.913,0,1615398002,913000107,/vehicle_frd,0,0,32.884754775802634,-117.12288992120214,146.56707109345112,0.0,0.0,0.0,0.0,0.0,0.0,0.0,0.0,0.0,0
1615398002.933,0,1615398002,933000088,/vehicle_frd,0,0,32.88475484229458,-117.12288965028723,146.56713050918952,0.0,0.0,0.0,0.0,0.0,0.0,0.0,0.0,0.0,0
1615398002.953,0,1615398002,953000069,/vehicle_frd,0,0,32.884754913971754,-117.12288935683584,146.56719393312258,0.0,0.0,0.0,0.0,0.0,0.0,0.0,0.0,0.0,0
1615398002.973,0,1615398002,973000050,/vehicle_frd,0,0,32.88475498486457,-117.12288906506085,146.5672557900357,0.0,0.0,0.0,0.0,0.0,0.0,0.0,0.0,0.0,0
1615398002.993,0,1615398002,993000031,/vehicle_frd,0,0,32.88475505693958,-117.12288876688406,146.56731751771912,0.0,0.0,0.0,0.0,0.0,0.0,0.0,0.0,0.0,0
1615398003.013,0,1615398003,13000011,/vehicle_frd,0,0,32.884755128628896,-117.122888468577,146.56739004156117,0.0,0.0,0.0,0.0,0.0,0.0,0.0,0.0,0.0,0
1615398003.033,0,1615398003,32999992,/vehicle_frd,0,0,32.88475520131899,-117.12288816477948,146.56746192717458,0.0,0.0,0.0,0.0,0.0,0.0,0.0,0.0,0.0,0
1615398003.053,0,1615398003,52999973,/vehicle_frd,0,0,32.884755357062545,-117.12288782178696,146.55458871579907,0.0,0.0,0.0,0.0,0.0,0.0,0.0,0.0,0.0,0
1615398003.073,0,1615398003,72999954,/vehicle_frd,0,0,32.88475542802251,-117.1228875212939,146.5546565347939,0.0,0.0,0.0,0.0,0.0,0.0,0.0,0.0,0.0,0
1615398003.093,0,1615398003,92999935,/vehicle_frd,0,0,32.88475549741594,-117.12288722513264,146.55472282925706,0.0,0.0,0.0,0.0,0.0,0.0,0.0,0.0,0.0,0
1615398003.113,0,1615398003,112999916,/vehicle_frd,0,0,32.88475556831666,-117.1228869207414,146.5547906292863,0.0,0.0,0.0,0.0,0.0,0.0,0.0,0.0,0.0,0
1615398003.133,0,1615398003,132999897,/vehicle_frd,0,0,32.8847556387129,-117.1228866161857,146.5548579197527,0.0,0.0,0.0,0.0,0.0,0.0,0.0,0.0,0.0,0
1615398003.153,0,1615398003,153000116,/vehicle_frd,0,0,32.884755709751325,-117.12288630699553,146.5549254418329,0.0,0.0,0.0,0.0,0.0,0.0,0.0,0.0,0.0,0
1615398003.173,0,1615398003,173000097,/vehicle_frd,0,0,32.88475578027623,-117.12288599764022,146.55499209735024,0.0,0.0,0.0,0.0,0.0,0.0,0.0,0.0,0.0,0
1615398003.193,0,1615398003,193000078,/vehicle_frd,0,0,32.88475585000009,-117.1228856899643,146.55505798882018,0.0,0.0,0.0,0.0,0.0,0.0,0.0,0.0,0.0,0
1615398003.213,0,1615398003,213000059,/vehicle_frd,0,0,32.88475591950841,-117.12288538125281,146.55512372667346,0.0,0.0,0.0,0.0,0.0,0.0,0.0,0.0,0.0,0
1615398003.233,0,1615398003,233000040,/vehicle_frd,0,0,32.88475598873509,-117.12288507051956,146.55519026160673,0.0,0.0,0.0,0.0,0.0,0.0,0.0,0.0,0.0,0
1615398003.253,0,1615398003,253000021,/vehicle_frd,0,0,32.884756057896084,-117.12288475783372,146.55525782951798,0.0,0.0,0.0,0.0,0.0,0.0,0.0,0.0,0.0,0
1615398003.273,0,1615398003,273000002,/vehicle_frd,0,0,32.88475612650067,-117.12288444497594,146.55533253507167,0.0,0.0,0.0,0.0,0.0,0.0,0.0,0.0,0.0,0
1615398003.293,0,1615398003,292999983,/vehicle_frd,0,0,32.88475619608149,-117.12288412566227,146.5554088994743,0.0,0.0,0.0,0.0,0.0,0.0,0.0,0.0,0.0,0
1615398003.313,0,1615398003,312999964,/vehicle_frd,0,0,32.884756263279805,-117.12288381430434,146.55548316176998,0.0,0.0,0.0,0.0,0.0,0.0,0.0,0.0,0.0,0
1615398003.333,0,1615398003,332999945,/vehicle_frd,0,0,32.884756331693595,-117.12288349463658,146.5555582972038,0.0,0.0,0.0,0.0,0.0,0.0,0.0,0.0,0.0,0
1615398003.353,0,1615398003,352999926,/vehicle_frd,0,0,32.88475639829772,-117.12288318117213,146.55562967237876,0.0,0.0,0.0,0.0,0.0,0.0,0.0,0.0,0.0,0
1615398003.373,0,1615398003,372999907,/vehicle_frd,0,0,32.88475646557374,-117.1228828611653,146.5556995122044,0.0,0.0,0.0,0.0,0.0,0.0,0.0,0.0,0.0,0
1615398003.393,0,1615398003,392999887,/vehicle_frd,0,0,32.884756532671524,-117.12288253918095,146.55576723012982,0.0,0.0,0.0,0.0,0.0,0.0,0.0,0.0,0.0,0
1615398003.413,0,1615398003,413000107,/vehicle_frd,0,0,32.88475660032637,-117.12288221158643,146.55583433019257,0.0,0.0,0.0,0.0,0.0,0.0,0.0,0.0,0.0,0
1615398003.433,0,1615398003,433000088,/vehicle_frd,0,0,32.88475666623477,-117.12288188925702,146.55590018328877,0.0,0.0,0.0,0.0,0.0,0.0,0.0,0.0,0.0,0
1615398003.453,0,1615398003,453000069,/vehicle_frd,0,0,32.88475673168794,-117.12288156679662,146.55596707822684,0.0,0.0,0.0,0.0,0.0,0.0,0.0,0.0,0.0,0
1615398003.473,0,1615398003,473000050,/vehicle_frd,0,0,32.88475679625893,-117.12288124504767,146.55603708290118,0.0,0.0,0.0,0.0,0.0,0.0,0.0,0.0,0.0,0
1615398003.493,0,1615398003,493000031,/vehicle_frd,0,0,32.88475686083461,-117.1228809194602,146.55611392955123,0.0,0.0,0.0,0.0,0.0,0.0,0.0,0.0,0.0,0
1615398003.513,0,1615398003,513000011,/vehicle_frd,0,0,32.88475692520694,-117.1228805918975,146.55619833966426,0.0,0.0,0.0,0.0,0.0,0.0,0.0,0.0,0.0,0
1615398003.533,0,1615398003,532999992,/vehicle_frd,0,0,32.88475698951603,-117.1228802604821,146.55629813345655,0.0,0.0,0.0,0.0,0.0,0.0,0.0,0.0,0.0,0
1615398003.553,0,1615398003,552999973,/vehicle_frd,0,0,32.88475705352838,-117.12287992802796,146.55640632977045,0.0,0.0,0.0,0.0,0.0,0.0,0.0,0.0,0.0,0
1615398003.573,0,1615398003,572999954,/vehicle_frd,0,0,32.88475711674955,-117.12287959536168,146.55652217621594,0.0,0.0,0.0,0.0,0.0,0.0,0.0,0.0,0.0,0
1615398003.593,0,1615398003,592999935,/vehicle_frd,0,0,32.884757178424024,-117.12287926707204,146.55664298109951,0.0,0.0,0.0,0.0,0.0,0.0,0.0,0.0,0.0,0
1615398003.613,0,1615398003,612999916,/vehicle_frd,0,0,32.88475724078569,-117.12287893130787,146.55677153891466,0.0,0.0,0.0,0.0,0.0,0.0,0.0,0.0,0.0,0
1615398003.633,0,1615398003,632999897,/vehicle_frd,0,0,32.88475730205248,-117.12287859717264,146.55690281844525,0.0,0.0,0.0,0.0,0.0,0.0,0.0,0.0,0.0,0
1615398003.653,0,1615398003,653000116,/vehicle_frd,0,0,32.884757479580806,-117.12287811377354,146.5564301260789,0.0,0.0,0.0,0.0,0.0,0.0,0.0,0.0,0.0,0
1615398003.673,0,1615398003,673000097,/vehicle_frd,0,0,32.88475753930074,-117.1228777792449,146.55656618528556,0.0,0.0,0.0,0.0,0.0,0.0,0.0,0.0,0.0,0
1615398003.693,0,1615398003,693000078,/vehicle_frd,0,0,32.88475759876404,-117.12287744274295,146.55670416283596,0.0,0.0,0.0,0.0,0.0,0.0,0.0,0.0,0.0,0
1615398003.713,0,1615398003,713000059,/vehicle_frd,0,0,32.884757657601426,-117.12287710608658,146.55684347089402,0.0,0.0,0.0,0.0,0.0,0.0,0.0,0.0,0.0,0
1615398003.733,0,1615398003,733000040,/vehicle_frd,0,0,32.8847577162144,-117.1228767655604,146.55698607385872,0.0,0.0,0.0,0.0,0.0,0.0,0.0,0.0,0.0,0
1615398003.753,0,1615398003,753000021,/vehicle_frd,0,0,32.88475777401706,-117.12287642579288,146.5571298798219,0.0,0.0,0.0,0.0,0.0,0.0,0.0,0.0,0.0,0
1615398003.773,0,1615398003,773000002,/vehicle_frd,0,0,32.88475783157624,-117.12287608310926,146.5572770135039,0.0,0.0,0.0,0.0,0.0,0.0,0.0,0.0,0.0,0
1615398003.793,0,1615398003,792999983,/vehicle_frd,0,0,32.884757888207304,-117.12287574116097,146.5574327431134,0.0,0.0,0.0,0.0,0.0,0.0,0.0,0.0,0.0,0
1615398003.813,0,1615398003,812999964,/vehicle_frd,0,0,32.88475794516575,-117.12287539357708,146.55759313963563,0.0,0.0,0.0,0.0,0.0,0.0,0.0,0.0,0.0,0
1615398003.833,0,1615398003,832999945,/vehicle_frd,0,0,32.884758000583716,-117.12287504944746,146.5577555912758,0.0,0.0,0.0,0.0,0.0,0.0,0.0,0.0,0.0,0
1615398003.853,0,1615398003,852999926,/vehicle_frd,0,0,32.8847580558471,-117.1228747014799,146.5579227375619,0.0,0.0,0.0,0.0,0.0,0.0,0.0,0.0,0.0,0
1615398003.873,0,1615398003,872999907,/vehicle_frd,0,0,32.88475811039746,-117.12287435335433,146.55809272437935,0.0,0.0,0.0,0.0,0.0,0.0,0.0,0.0,0.0,0
1615398003.893,0,1615398003,892999887,/vehicle_frd,0,0,32.88475816443994,-117.12287400321803,146.55826706933965,0.0,0.0,0.0,0.0,0.0,0.0,0.0,0.0,0.0,0
1615398003.913,0,1615398003,913000107,/vehicle_frd,0,0,32.8847582174807,-117.12287365476531,146.55844367815598,0.0,0.0,0.0,0.0,0.0,0.0,0.0,0.0,0.0,0
1615398003.933,0,1615398003,933000088,/vehicle_frd,0,0,32.88475827021895,-117.12287330245235,146.55862561998214,0.0,0.0,0.0,0.0,0.0,0.0,0.0,0.0,0.0,0
1615398003.953,0,1615398003,953000069,/vehicle_frd,0,0,32.884758321726245,-117.12287295367707,146.55880881647883,0.0,0.0,0.0,0.0,0.0,0.0,0.0,0.0,0.0,0
1615398003.973,0,1615398003,973000050,/vehicle_frd,0,0,32.884758372547225,-117.1228726038126,146.55899508466433,0.0,0.0,0.0,0.0,0.0,0.0,0.0,0.0,0.0,0
1615398003.993,0,1615398003,993000031,/vehicle_frd,0,0,32.8847584229724,-117.12287225102475,146.55918509415125,0.0,0.0,0.0,0.0,0.0,0.0,0.0,0.0,0.0,0
1615398004.013,0,1615398004,13000011,/vehicle_frd,0,0,32.88475847291423,-117.12287189529908,146.55937843157523,0.0,0.0,0.0,0.0,0.0,0.0,0.0,0.0,0.0,0
1615398004.033,0,1615398004,32999992,/vehicle_frd,0,0,32.884758522539464,-117.12287153572395,146.5595748284793,0.0,0.0,0.0,0.0,0.0,0.0,0.0,0.0,0.0,0
1615398004.053,0,1615398004,52999973,/vehicle_frd,0,0,32.884758571280436,-117.12287117787177,146.55977776413818,0.0,0.0,0.0,0.0,0.0,0.0,0.0,0.0,0.0,0
1615398004.073,0,1615398004,72999954,/vehicle_frd,0,0,32.88475861878985,-117.12287082167893,146.55998096561873,0.0,0.0,0.0,0.0,0.0,0.0,0.0,0.0,0.0,0
1615398004.093,0,1615398004,92999935,/vehicle_frd,0,0,32.884758665494694,-117.12287046628224,146.5601838802712,0.0,0.0,0.0,0.0,0.0,0.0,0.0,0.0,0.0,0
1615398004.113,0,1615398004,112999916,/vehicle_frd,0,0,32.884758711808146,-117.12287010703271,146.56039009180432,0.0,0.0,0.0,0.0,0.0,0.0,0.0,0.0,0.0,0
1615398004.133,0,1615398004,132999897,/vehicle_frd,0,0,32.88475875740635,-117.12286974765486,146.56059816148888,0.0,0.0,0.0,0.0,0.0,0.0,0.0,0.0,0.0,0
1615398004.153,0,1615398004,153000116,/vehicle_frd,0,0,32.884758803048115,-117.12286938167293,146.5608121399662,0.0,0.0,0.0,0.0,0.0,0.0,0.0,0.0,0.0,0
1615398004.173,0,1615398004,173000097,/vehicle_frd,0,0,32.88475884737988,-117.12286901829667,146.56102738225093,0.0,0.0,0.0,0.0,0.0,0.0,0.0,0.0,0.0,0
1615398004.193,0,1615398004,193000078,/vehicle_frd,0,0,32.884758891311414,-117.12286865107768,146.56124836031992,0.0,0.0,0.0,0.0,0.0,0.0,0.0,0.0,0.0,0
1615398004.213,0,1615398004,213000059,/vehicle_frd,0,0,32.88475893390962,-117.12286828741077,146.5614711043363,0.0,0.0,0.0,0.0,0.0,0.0,0.0,0.0,0.0,0
1615398004.233,0,1615398004,233000040,/vehicle_frd,0,0,32.884758976041795,-117.12286792178215,146.56169951059746,0.0,0.0,0.0,0.0,0.0,0.0,0.0,0.0,0.0,0
1615398004.253,0,1615398004,253000021,/vehicle_frd,0,0,32.884759101244775,-117.12286750380653,146.56264750503436,0.0,0.0,0.0,0.0,0.0,0.0,0.0,0.0,0.0,0
1615398004.273,0,1615398004,273000002,/vehicle_frd,0,0,32.884759141987374,-117.12286713324622,146.56288868027897,0.0,0.0,0.0,0.0,0.0,0.0,0.0,0.0,0.0,0
1615398004.293,0,1615398004,292999983,/vehicle_frd,0,0,32.88475918210652,-117.12286676070701,146.56313569180236,0.0,0.0,0.0,0.0,0.0,0.0,0.0,0.0,0.0,0
1615398004.313,0,1615398004,312999964,/vehicle_frd,0,0,32.8847592211372,-117.12286638988886,146.56339197882986,0.0,0.0,0.0,0.0,0.0,0.0,0.0,0.0,0.0,0
1615398004.333,0,1615398004,332999945,/vehicle_frd,0,0,32.88475925922517,-117.12286601987458,146.56365135985195,0.0,0.0,0.0,0.0,0.0,0.0,0.0,0.0,0.0,0
1615398004.353,0,1615398004,352999926,/vehicle_frd,0,0,32.88475929668386,-117.12286564788863,146.56391575154083,0.0,0.0,0.0,0.0,0.0,0.0,0.0,0.0,0.0,0
1615398004.373,0,1615398004,372999907,/vehicle_frd,0,0,32.88475933340914,-117.12286527391933,146.56418553090407,0.0,0.0,0.0,0.0,0.0,0.0,0.0,0.0,0.0,0
1615398004.393,0,1615398004,392999887,/vehicle_frd,0,0,32.88475936913288,-117.12286490075404,146.56445845782505,0.0,0.0,0.0,0.0,0.0,0.0,0.0,0.0,0.0,0
1615398004.413,0,1615398004,413000107,/vehicle_frd,0,0,32.8847594046349,-117.12286452097896,146.56473949744304,0.0,0.0,0.0,0.0,0.0,0.0,0.0,0.0,0.0,0
1615398004.433,0,1615398004,433000088,/vehicle_frd,0,0,32.884759439165315,-117.12286414295762,146.5650219064724,0.0,0.0,0.0,0.0,0.0,0.0,0.0,0.0,0.0,0
1615398004.453,0,1615398004,453000069,/vehicle_frd,0,0,32.884759472761054,-117.12286376387894,146.56530742440646,0.0,0.0,0.0,0.0,0.0,0.0,0.0,0.0,0.0,0
1615398004.473,0,1615398004,473000050,/vehicle_frd,0,0,32.8847595056769,-117.12286338377751,146.565595237711,0.0,0.0,0.0,0.0,0.0,0.0,0.0,0.0,0.0,0
1615398004.493,0,1615398004,493000031,/vehicle_frd,0,0,32.884759536987374,-117.12286300536427,146.5658827009131,0.0,0.0,0.0,0.0,0.0,0.0,0.0,0.0,0.0,0
1615398004.513,0,1615398004,513000011,/vehicle_frd,0,0,32.884759567823494,-117.12286262220246,146.56617459711543,0.0,0.0,0.0,0.0,0.0,0.0,0.0,0.0,0.0,0
1615398004.533,0,1615398004,532999992,/vehicle_frd,0,0,32.884759597878386,-117.12286224176846,146.5664643934067,0.0,0.0,0.0,0.0,0.0,0.0,0.0,0.0,0.0,0
1615398004.553,0,1615398004,552999973,/vehicle_frd,0,0,32.884759627141335,-117.12286186030967,146.56675556592558,0.0,0.0,0.0,0.0,0.0,0.0,0.0,0.0,0.0,0
1615398004.573,0,1615398004,572999954,/vehicle_frd,0,0,32.884759655750955,-117.1228614759683,146.56705641802176,0.0,0.0,0.0,0.0,0.0,0.0,0.0,0.0,0.0,0
1615398004.593,0,1615398004,592999935,/vehicle_frd,0,0,32.88475968379356,-117.12286108688008,146.56736297283192,0.0,0.0,0.0,0.0,0.0,0.0,0.0,0.0,0.0,0
1615398004.613,0,1615398004,612999916,/vehicle_frd,0,0,32.8847597107793,-117.12286070049939,146.5676705684421,0.0,0.0,0.0,0.0,0.0,0.0,0.0,0.0,0.0,0
1615398004.633,0,1615398004,632999897,/vehicle_frd,0,0,32.88475973704058,-117.12286031123726,146.56798437363113,0.0,0.0,0.0,0.0,0.0,0.0,0.0,0.0,0.0,0
1615398004.653,0,1615398004,653000116,/vehicle_frd,0,0,32.88475976332204,-117.12285991732637,146.56830615449527,0.0,0.0,0.0,0.0,0.0,0.0,0.0,0.0,0.0,0
1615398004.673,0,1615398004,673000097,/vehicle_frd,0,0,32.8847597882232,-117.12285952231832,146.56863290829006,0.0,0.0,0.0,0.0,0.0,0.0,0.0,0.0,0.0,0
1615398004.693,0,1615398004,693000078,/vehicle_frd,0,0,32.884759812355114,-117.12285912537033,146.5689655596687,0.0,0.0,0.0,0.0,0.0,0.0,0.0,0.0,0.0,0
1615398004.713,0,1615398004,713000059,/vehicle_frd,0,0,32.884759835324346,-117.12285873300804,146.56929803357968,0.0,0.0,0.0,0.0,0.0,0.0,0.0,0.0,0.0,0
1615398004.733,0,1615398004,733000040,/vehicle_frd,0,0,32.88475985791508,-117.12285833218817,146.56964219740235,0.0,0.0,0.0,0.0,0.0,0.0,0.0,0.0,0.0,0
1615398004.753,0,1615398004,753000021,/vehicle_frd,0,0,32.88475987943582,-117.12285793409451,146.56998926545853,0.0,0.0,0.0,0.0,0.0,0.0,0.0,0.0,0.0,0
1615398004.773,0,1615398004,773000002,/vehicle_frd,0,0,32.884759900311444,-117.12285753127325,146.57034664049382,0.0,0.0,0.0,0.0,0.0,0.0,0.0,0.0,0.0,0
1615398004.793,0,1615398004,792999983,/vehicle_frd,0,0,32.88475992046865,-117.12285712465795,146.5707142631571,0.0,0.0,0.0,0.0,0.0,0.0,0.0,0.0,0.0,0
1615398004.813,0,1615398004,812999964,/vehicle_frd,0,0,32.88475993959199,-117.12285672078025,146.57108642495228,0.0,0.0,0.0,0.0,0.0,0.0,0.0,0.0,0.0,0
1615398004.833,0,1615398004,832999945,/vehicle_frd,0,0,32.884759957890545,-117.12285631684998,146.57146886030716,0.0,0.0,0.0,0.0,0.0,0.0,0.0,0.0,0.0,0
1615398004.853,0,1615398004,852999926,/vehicle_frd,0,0,32.884760128386795,-117.12285581823073,146.5628631539047,0.0,0.0,0.0,0.0,0.0,0.0,0.0,0.0,0.0,0
1615398004.873,0,1615398004,872999907,/vehicle_frd,0,0,32.88476014444003,-117.12285542445535,146.5632488632366,0.0,0.0,0.0,0.0,0.0,0.0,0.0,0.0,0.0,0
1615398004.893,0,1615398004,892999887,/vehicle_frd,0,0,32.88476015957178,-117.12285503249971,146.56363845062472,0.0,0.0,0.0,0.0,0.0,0.0,0.0,0.0,0.0,0
1615398004.913,0,1615398004,913000107,/vehicle_frd,0,0,32.88476017406201,-117.12285463583497,146.56403594715078,0.0,0.0,0.0,0.0,0.0,0.0,0.0,0.0,0.0,0
1615398004.933,0,1615398004,933000088,/vehicle_frd,0,0,32.8847601881425,-117.1228542269945,146.5644462280032,0.0,0.0,0.0,0.0,0.0,0.0,0.0,0.0,0.0,0
1615398004.953,0,1615398004,953000069,/vehicle_frd,0,0,32.88476020144808,-117.12285381624761,146.564856705316,0.0,0.0,0.0,0.0,0.0,0.0,0.0,0.0,0.0,0
1615398004.973,0,1615398004,973000050,/vehicle_frd,0,0,32.88476021086902,-117.12285350629269,146.56516272606467,0.0,0.0,0.0,0.0,0.0,0.0,0.0,0.0,0.0,0
1615398004.993,0,1615398004,993000031,/vehicle_frd,0,0,32.88476022210544,-117.12285311602149,146.5655416873563,0.0,0.0,0.0,0.0,0.0,0.0,0.0,0.0,0.0,0
1615398005.013,0,1615398005,13000011,/vehicle_frd,0,0,32.88476023257866,-117.12285272385039,146.56591434892582,0.0,0.0,0.0,0.0,0.0,0.0,0.0,0.0,0.0,0
1615398005.033,0,1615398005,32999992,/vehicle_frd,0,0,32.88476024236365,-117.12285232604549,146.56628201159407,0.0,0.0,0.0,0.0,0.0,0.0,0.0,0.0,0.0,0
1615398005.053,0,1615398005,52999973,/vehicle_frd,0,0,32.884760251499024,-117.12285192261041,146.56664377670273,0.0,0.0,0.0,0.0,0.0,0.0,0.0,0.0,0.0,0
1615398005.073,0,1615398005,72999954,/vehicle_frd,0,0,32.88476025993568,-117.12285151448019,146.56699743757486,0.0,0.0,0.0,0.0,0.0,0.0,0.0,0.0,0.0,0
1615398005.093,0,1615398005,92999935,/vehicle_frd,0,0,32.88476026741759,-117.12285111660299,146.5673450390787,0.0,0.0,0.0,0.0,0.0,0.0,0.0,0.0,0.0,0
1615398005.113,0,1615398005,112999916,/vehicle_frd,0,0,32.88476027402455,-117.1228507261782,146.56767583079335,0.0,0.0,0.0,0.0,0.0,0.0,0.0,0.0,0.0,0
1615398005.133,0,1615398005,132999897,/vehicle_frd,0,0,32.88476027988228,-117.12285034040748,146.56799238148074,0.0,0.0,0.0,0.0,0.0,0.0,0.0,0.0,0.0,0
1615398005.153,0,1615398005,153000116,/vehicle_frd,0,0,32.88476028459772,-117.12284998918405,146.5682711069183,0.0,0.0,0.0,0.0,0.0,0.0,0.0,0.0,0.0,0
1615398005.173,0,1615398005,173000097,/vehicle_frd,0,0,32.884760288382566,-117.12284966130153,146.5685211290067,0.0,0.0,0.0,0.0,0.0,0.0,0.0,0.0,0.0,0
1615398005.193,0,1615398005,193000078,/vehicle_frd,0,0,32.88476029213428,-117.12284927735958,146.5688029397918,0.0,0.0,0.0,0.0,0.0,0.0,0.0,0.0,0.0,0
1615398005.213,0,1615398005,213000059,/vehicle_frd,0,0,32.88476029536478,-117.12284887472468,146.5690882095264,0.0,0.0,0.0,0.0,0.0,0.0,0.0,0.0,0.0,0
1615398005.233,0,1615398005,233000040,/vehicle_frd,0,0,32.88476029792955,-117.12284847395098,146.56936431205565,0.0,0.0,0.0,0.0,0.0,0.0,0.0,0.0,0.0,0
1615398005.253,0,1615398005,253000021,/vehicle_frd,0,0,32.88476030063466,-117.12284805360134,146.56964700071643,0.0,0.0,0.0,0.0,0.0,0.0,0.0,0.0,0.0,0
1615398005.273,0,1615398005,273000002,/vehicle_frd,0,0,32.884760302031,-117.12284762665992,146.56992975299417,0.0,0.0,0.0,0.0,0.0,0.0,0.0,0.0,0.0,0
1615398005.293,0,1615398005,292999983,/vehicle_frd,0,0,32.884760302837094,-117.12284718476846,146.57022072243433,0.0,0.0,0.0,0.0,0.0,0.0,0.0,0.0,0.0,0
1615398005.313,0,1615398005,312999964,/vehicle_frd,0,0,32.884760303010275,-117.12284670363833,146.5705391933153,0.0,0.0,0.0,0.0,0.0,0.0,0.0,0.0,0.0,0
1615398005.333,0,1615398005,332999945,/vehicle_frd,0,0,32.88476030247747,-117.12284621036402,146.57087215257633,0.0,0.0,0.0,0.0,0.0,0.0,0.0,0.0,0.0,0
1615398005.353,0,1615398005,352999926,/vehicle_frd,0,0,32.884760301479076,-117.12284580771251,146.57115575725123,0.0,0.0,0.0,0.0,0.0,0.0,0.0,0.0,0.0,0
1615398005.373,0,1615398005,372999907,/vehicle_frd,0,0,32.88476030013022,-117.1228454583151,146.5714145699534,0.0,0.0,0.0,0.0,0.0,0.0,0.0,0.0,0.0,0
1615398005.393,0,1615398005,392999887,/vehicle_frd,0,0,32.8847602983656,-117.12284511452692,146.57168223119572,0.0,0.0,0.0,0.0,0.0,0.0,0.0,0.0,0.0,0
1615398005.413,0,1615398005,413000107,/vehicle_frd,0,0,32.884760295650835,-117.12284470721873,146.57200976405548,0.0,0.0,0.0,0.0,0.0,0.0,0.0,0.0,0.0,0
1615398005.433,0,1615398005,433000088,/vehicle_frd,0,0,32.88476029204726,-117.12284425320745,146.57238150172475,0.0,0.0,0.0,0.0,0.0,0.0,0.0,0.0,0.0,0
1615398005.453,0,1615398005,453000069,/vehicle_frd,0,0,32.884760389729664,-117.1228434818207,146.56606396864737,0.0,0.0,0.0,0.0,0.0,0.0,0.0,0.0,0.0,0
1615398005.473,0,1615398005,473000050,/vehicle_frd,0,0,32.884760384866865,-117.12284302408825,146.56644603189778,0.0,0.0,0.0,0.0,0.0,0.0,0.0,0.0,0.0,0
1615398005.493,0,1615398005,493000031,/vehicle_frd,0,0,32.884760380224485,-117.1228426336227,146.56677627173246,0.0,0.0,0.0,0.0,0.0,0.0,0.0,0.0,0.0,0
1615398005.513,0,1615398005,513000011,/vehicle_frd,0,0,32.88476037560687,-117.12284228520163,146.56707451088715,0.0,0.0,0.0,0.0,0.0,0.0,0.0,0.0,0.0,0
1615398005.533,0,1615398005,532999992,/vehicle_frd,0,0,32.884760370013446,-117.12284189755717,146.56740772227738,0.0,0.0,0.0,0.0,0.0,0.0,0.0,0.0,0.0,0
1615398005.553,0,1615398005,552999973,/vehicle_frd,0,0,32.88476036331306,-117.12284146975813,146.56777383423906,0.0,0.0,0.0,0.0,0.0,0.0,0.0,0.0,0.0,0
1615398005.573,0,1615398005,572999954,/vehicle_frd,0,0,32.88476035542975,-117.12284099993799,146.56817184151748,0.0,0.0,0.0,0.0,0.0,0.0,0.0,0.0,0.0,0
1615398005.593,0,1615398005,592999935,/vehicle_frd,0,0,32.88476034702242,-117.1228405310647,146.56856562992195,0.0,0.0,0.0,0.0,0.0,0.0,0.0,0.0,0.0,0
1615398005.613,0,1615398005,612999916,/vehicle_frd,0,0,32.884760339208256,-117.12284012011145,146.5689089131809,0.0,0.0,0.0,0.0,0.0,0.0,0.0,0.0,0.0,0
1615398005.633,0,1615398005,632999897,/vehicle_frd,0,0,32.884760331579116,-117.12283973999084,146.56922807311128,0.0,0.0,0.0,0.0,0.0,0.0,0.0,0.0,0.0,0
1615398005.653,0,1615398005,653000116,/vehicle_frd,0,0,32.88476032333105,-117.12283934960884,146.5695579255119,0.0,0.0,0.0,0.0,0.0,0.0,0.0,0.0,0.0,0
1615398005.673,0,1615398005,673000097,/vehicle_frd,0,0,32.884760313901694,-117.12283892375083,146.56991931259032,0.0,0.0,0.0,0.0,0.0,0.0,0.0,0.0,0.0,0
1615398005.693,0,1615398005,693000078,/vehicle_frd,0,0,32.88476030323361,-117.12283846241912,146.570311292177,0.0,0.0,0.0,0.0,0.0,0.0,0.0,0.0,0.0,0
1615398005.713,0,1615398005,713000059,/vehicle_frd,0,0,32.88476029194602,-117.12283799456601,146.57071038709438,0.0,0.0,0.0,0.0,0.0,0.0,0.0,0.0,0.0,0
1615398005.733,0,1615398005,733000040,/vehicle_frd,0,0,32.884760281034026,-117.1228375603466,146.57108541870315,0.0,0.0,0.0,0.0,0.0,0.0,0.0,0.0,0.0,0
1615398005.753,0,1615398005,753000021,/vehicle_frd,0,0,32.88476027043968,-117.12283715415589,146.57144292022986,0.0,0.0,0.0,0.0,0.0,0.0,0.0,0.0,0.0,0
1615398005.773,0,1615398005,773000002,/vehicle_frd,0,0,32.8847602594632,-117.12283674798027,146.57180860004846,0.0,0.0,0.0,0.0,0.0,0.0,0.0,0.0,0.0,0
1615398005.793,0,1615398005,792999983,/vehicle_frd,0,0,32.88476024753908,-117.12283632127831,146.57219967821885,0.0,0.0,0.0,0.0,0.0,0.0,0.0,0.0,0.0,0
1615398005.813,0,1615398005,812999964,/vehicle_frd,0,0,32.88476023423152,-117.1228358591118,146.57262813100937,0.0,0.0,0.0,0.0,0.0,0.0,0.0,0.0,0.0,0
1615398005.833,0,1615398005,832999945,/vehicle_frd,0,0,32.884760220149786,-117.12283538389057,146.5730719096619,0.0,0.0,0.0,0.0,0.0,0.0,0.0,0.0,0.0,0
1615398005.853,0,1615398005,852999926,/vehicle_frd,0,0,32.88476020630152,-117.12283492642467,146.5735020904912,0.0,0.0,0.0,0.0,0.0,0.0,0.0,0.0,0.0,0
1615398005.873,0,1615398005,872999907,/vehicle_frd,0,0,32.8847601931564,-117.12283450444835,146.57389865613533,0.0,0.0,0.0,0.0,0.0,0.0,0.0,0.0,0.0,0
1615398005.893,0,1615398005,892999887,/vehicle_frd,0,0,32.884760180042896,-117.12283409275435,146.57428763541583,0.0,0.0,0.0,0.0,0.0,0.0,0.0,0.0,0.0,0
1615398005.913,0,1615398005,913000107,/vehicle_frd,0,0,32.88476016625827,-117.12283366893708,146.57468795446385,0.0,0.0,0.0,0.0,0.0,0.0,0.0,0.0,0.0,0
1615398005.933,0,1615398005,933000088,/vehicle_frd,0,0,32.88476015117224,-117.12283321432706,146.575113122434,0.0,0.0,0.0,0.0,0.0,0.0,0.0,0.0,0.0,0
1615398005.953,0,1615398005,953000069,/vehicle_frd,0,0,32.884760135379324,-117.1228327475953,146.57554295859205,0.0,0.0,0.0,0.0,0.0,0.0,0.0,0.0,0.0,0
1615398005.973,0,1615398005,973000050,/vehicle_frd,0,0,32.88476011953307,-117.1228322874101,146.5759589795109,0.0,0.0,0.0,0.0,0.0,0.0,0.0,0.0,0.0,0
1615398005.993,0,1615398005,993000031,/vehicle_frd,0,0,32.88476010441104,-117.12283185056397,146.5763465136543,0.0,0.0,0.0,0.0,0.0,0.0,0.0,0.0,0.0,0
1615398006.013,0,1615398006,13000011,/vehicle_frd,0,0,32.884760089295966,-117.1228314258722,146.5767171666365,0.0,0.0,0.0,0.0,0.0,0.0,0.0,0.0,0.0,0
1615398006.033,0,1615398006,32999992,/vehicle_frd,0,0,32.88476007357918,-117.1228309909244,146.5770899974516,0.0,0.0,0.0,0.0,0.0,0.0,0.0,0.0,0.0,0
1615398006.053,0,1615398006,52999973,/vehicle_frd,0,0,32.884760056998736,-117.12283053825327,146.57746982797912,0.0,0.0,0.0,0.0,0.0,0.0,0.0,0.0,0.0,0
1615398006.073,0,1615398006,72999954,/vehicle_frd,0,0,32.884760107787436,-117.12283022706477,146.5801455931053,0.0,0.0,0.0,0.0,0.0,0.0,0.0,0.0,0.0,0
1615398006.093,0,1615398006,92999935,/vehicle_frd,0,0,32.8847600899428,-117.12282975295085,146.58052767038262,0.0,0.0,0.0,0.0,0.0,0.0,0.0,0.0,0.0,0
1615398006.113,0,1615398006,112999916,/vehicle_frd,0,0,32.88476007277893,-117.12282930217923,146.58088477217018,0.0,0.0,0.0,0.0,0.0,0.0,0.0,0.0,0.0,0
1615398006.133,0,1615398006,132999897,/vehicle_frd,0,0,32.884760055977154,-117.12282886541574,146.5812286911218,0.0,0.0,0.0,0.0,0.0,0.0,0.0,0.0,0.0,0
1615398006.153,0,1615398006,153000116,/vehicle_frd,0,0,32.88476003897895,-117.12282842772741,146.5815701137878,0.0,0.0,0.0,0.0,0.0,0.0,0.0,0.0,0.0,0
1615398006.173,0,1615398006,173000097,/vehicle_frd,0,0,32.88476002134232,-117.12282797791569,146.58191558841582,0.0,0.0,0.0,0.0,0.0,0.0,0.0,0.0,0.0,0
1615398006.193,0,1615398006,193000078,/vehicle_frd,0,0,32.88476000241948,-117.12282749918195,146.58227616818562,0.0,0.0,0.0,0.0,0.0,0.0,0.0,0.0,0.0,0
1615398006.213,0,1615398006,213000059,/vehicle_frd,0,0,32.884759983211254,-117.12282701672237,146.58263123652506,0.0,0.0,0.0,0.0,0.0,0.0,0.0,0.0,0.0,0
1615398006.233,0,1615398006,233000040,/vehicle_frd,0,0,32.884759964409625,-117.12282654733326,146.58296997679855,0.0,0.0,0.0,0.0,0.0,0.0,0.0,0.0,0.0,0
1615398006.253,0,1615398006,253000021,/vehicle_frd,0,0,32.884759946532,-117.12282610314458,146.58328781930086,0.0,0.0,0.0,0.0,0.0,0.0,0.0,0.0,0.0,0
1615398006.273,0,1615398006,273000002,/vehicle_frd,0,0,32.88475992843367,-117.12282565522725,146.58360873307424,0.0,0.0,0.0,0.0,0.0,0.0,0.0,0.0,0.0,0
1615398006.293,0,1615398006,292999983,/vehicle_frd,0,0,32.88475990998099,-117.12282519984794,146.58393891943916,0.0,0.0,0.0,0.0,0.0,0.0,0.0,0.0,0.0,0
1615398006.313,0,1615398006,312999964,/vehicle_frd,0,0,32.88475989079578,-117.12282472767528,146.5842869621764,0.0,0.0,0.0,0.0,0.0,0.0,0.0,0.0,0.0,0
1615398006.333,0,1615398006,332999945,/vehicle_frd,0,0,32.884759871268024,-117.12282424804019,146.58464639129087,0.0,0.0,0.0,0.0,0.0,0.0,0.0,0.0,0.0,0
1615398006.353,0,1615398006,352999926,/vehicle_frd,0,0,32.88475985167236,-117.12282376747426,146.58501342584816,0.0,0.0,0.0,0.0,0.0,0.0,0.0,0.0,0.0,0
1615398006.373,0,1615398006,372999907,/vehicle_frd,0,0,32.884759832550095,-117.12282329904085,146.58537687798923,0.0,0.0,0.0,0.0,0.0,0.0,0.0,0.0,0.0,0
1615398006.393,0,1615398006,392999887,/vehicle_frd,0,0,32.88475981398712,-117.12282284460552,146.58573375923186,0.0,0.0,0.0,0.0,0.0,0.0,0.0,0.0,0.0,0
1615398006.413,0,1615398006,413000107,/vehicle_frd,0,0,32.88475979523044,-117.12282238550482,146.58609554227309,0.0,0.0,0.0,0.0,0.0,0.0,0.0,0.0,0.0,0
1615398006.433,0,1615398006,433000088,/vehicle_frd,0,0,32.88475977609785,-117.12282191707229,146.58646223576957,0.0,0.0,0.0,0.0,0.0,0.0,0.0,0.0,0.0,0
1615398006.453,0,1615398006,453000069,/vehicle_frd,0,0,32.88475975665129,-117.12282144117408,146.58683076045097,0.0,0.0,0.0,0.0,0.0,0.0,0.0,0.0,0.0,0
1615398006.473,0,1615398006,473000050,/vehicle_frd,0,0,32.8847597372936,-117.12282096620639,146.5871932212777,0.0,0.0,0.0,0.0,0.0,0.0,0.0,0.0,0.0,0
1615398006.493,0,1615398006,493000031,/vehicle_frd,0,0,32.884759718317106,-117.12282049963422,146.58754318490605,0.0,0.0,0.0,0.0,0.0,0.0,0.0,0.0,0.0,0
1615398006.513,0,1615398006,513000011,/vehicle_frd,0,0,32.8847596997751,-117.12282004238988,146.5878806676738,0.0,0.0,0.0,0.0,0.0,0.0,0.0,0.0,0.0,0
1615398006.533,0,1615398006,532999992,/vehicle_frd,0,0,32.88475968125256,-117.1228195842087,146.58821378130602,0.0,0.0,0.0,0.0,0.0,0.0,0.0,0.0,0.0,0
1615398006.553,0,1615398006,552999973,/vehicle_frd,0,0,32.88475966258594,-117.12281912042351,146.588546176,0.0,0.0,0.0,0.0,0.0,0.0,0.0,0.0,0.0,0
1615398006.573,0,1615398006,572999954,/vehicle_frd,0,0,32.88475964396802,-117.12281865569994,146.5888748244783,0.0,0.0,0.0,0.0,0.0,0.0,0.0,0.0,0.0,0
1615398006.593,0,1615398006,592999935,/vehicle_frd,0,0,32.88475962544387,-117.12281819097082,146.58919997080378,0.0,0.0,0.0,0.0,0.0,0.0,0.0,0.0,0.0,0
1615398006.613,0,1615398006,612999916,/vehicle_frd,0,0,32.884759607238685,-117.12281773183533,146.5895191220141,0.0,0.0,0.0,0.0,0.0,0.0,0.0,0.0,0.0,0
1615398006.633,0,1615398006,632999897,/vehicle_frd,0,0,32.884759588787816,-117.122817264296,146.58984200934225,0.0,0.0,0.0,0.0,0.0,0.0,0.0,0.0,0.0,0
1615398006.653,0,1615398006,653000116,/vehicle_frd,0,0,32.88475966752407,-117.12281684866399,146.5792723447434,0.0,0.0,0.0,0.0,0.0,0.0,0.0,0.0,0.0,0
1615398006.673,0,1615398006,673000097,/vehicle_frd,0,0,32.884759649125606,-117.1228163764457,146.57959683515776,0.0,0.0,0.0,0.0,0.0,0.0,0.0,0.0,0.0,0
1615398006.693,0,1615398006,693000078,/vehicle_frd,0,0,32.8847596310443,-117.12281590982137,146.57991659580054,0.0,0.0,0.0,0.0,0.0,0.0,0.0,0.0,0.0,0
1615398006.713,0,1615398006,713000059,/vehicle_frd,0,0,32.88475961307198,-117.12281544319109,146.58023602018608,0.0,0.0,0.0,0.0,0.0,0.0,0.0,0.0,0.0,0
1615398006.733,0,1615398006,733000040,/vehicle_frd,0,0,32.88475959535319,-117.12281498028793,146.58055268925477,0.0,0.0,0.0,0.0,0.0,0.0,0.0,0.0,0.0,0
1615398006.753,0,1615398006,753000021,/vehicle_frd,0,0,32.884759577671424,-117.12281451551239,146.5808705747795,0.0,0.0,0.0,0.0,0.0,0.0,0.0,0.0,0.0,0
1615398006.773,0,1615398006,773000002,/vehicle_frd,0,0,32.8847595600376,-117.12281404886397,146.5811899491398,0.0,0.0,0.0,0.0,0.0,0.0,0.0,0.0,0.0,0
1615398006.793,0,1615398006,792999983,/vehicle_frd,0,0,32.88475954243091,-117.1228135794087,146.58151201015602,0.0,0.0,0.0,0.0,0.0,0.0,0.0,0.0,0.0,0
1615398006.813,0,1615398006,812999964,/vehicle_frd,0,0,32.884759524958966,-117.12281310994642,146.5818349813892,0.0,0.0,0.0,0.0,0.0,0.0,0.0,0.0,0.0,0
1615398006.833,0,1615398006,832999945,/vehicle_frd,0,0,32.884759507911596,-117.12281264794316,146.5821535809369,0.0,0.0,0.0,0.0,0.0,0.0,0.0,0.0,0.0,0
1615398006.853,0,1615398006,852999926,/vehicle_frd,0,0,32.884759491007806,-117.12281218593253,146.58247267384786,0.0,0.0,0.0,0.0,0.0,0.0,0.0,0.0,0.0,0
1615398006.873,0,1615398006,872999907,/vehicle_frd,0,0,32.88475947437171,-117.12281172671345,146.582788989393,0.0,0.0,0.0,0.0,0.0,0.0,0.0,0.0,0.0,0
1615398006.893,0,1615398006,892999887,/vehicle_frd,0,0,32.88475945776082,-117.12281126375254,146.58310498669655,0.0,0.0,0.0,0.0,0.0,0.0,0.0,0.0,0.0,0
1615398006.913,0,1615398006,913000107,/vehicle_frd,0,0,32.884759441441965,-117.12281080451675,146.5834119909398,0.0,0.0,0.0,0.0,0.0,0.0,0.0,0.0,0.0,0
1615398006.933,0,1615398006,933000088,/vehicle_frd,0,0,32.88475942521468,-117.12281034340602,146.58371656212728,0.0,0.0,0.0,0.0,0.0,0.0,0.0,0.0,0.0,0
1615398006.953,0,1615398006,953000069,/vehicle_frd,0,0,32.88475940908105,-117.12280988042029,146.58401810983366,0.0,0.0,0.0,0.0,0.0,0.0,0.0,0.0,0.0,0
1615398006.973,0,1615398006,973000050,/vehicle_frd,0,0,32.88475939322831,-117.1228094211607,146.5843134129483,0.0,0.0,0.0,0.0,0.0,0.0,0.0,0.0,0.0,0
1615398006.993,0,1615398006,993000031,/vehicle_frd,0,0,32.88475937759777,-117.1228089637602,146.58460492695872,0.0,0.0,0.0,0.0,0.0,0.0,0.0,0.0,0.0,0
1615398007.013,0,1615398007,13000011,/vehicle_frd,0,0,32.88475936209211,-117.12280850541872,146.58489658317757,0.0,0.0,0.0,0.0,0.0,0.0,0.0,0.0,0.0,0
1615398007.033,0,1615398007,32999992,/vehicle_frd,0,0,32.88475934662357,-117.12280804427063,146.5851910448431,0.0,0.0,0.0,0.0,0.0,0.0,0.0,0.0,0.0,0
1615398007.053,0,1615398007,52999973,/vehicle_frd,0,0,32.88475933141509,-117.12280758685041,146.58548614845512,0.0,0.0,0.0,0.0,0.0,0.0,0.0,0.0,0.0,0
1615398007.073,0,1615398007,72999954,/vehicle_frd,0,0,32.88475931636713,-117.12280713035797,146.58578500130136,0.0,0.0,0.0,0.0,0.0,0.0,0.0,0.0,0.0,0
1615398007.093,0,1615398007,92999935,/vehicle_frd,0,0,32.884759301447986,-117.12280667199002,146.58608838221778,0.0,0.0,0.0,0.0,0.0,0.0,0.0,0.0,0.0,0
1615398007.113,0,1615398007,112999916,/vehicle_frd,0,0,32.88475928675262,-117.12280621548192,146.58639301396312,0.0,0.0,0.0,0.0,0.0,0.0,0.0,0.0,0.0,0
1615398007.133,0,1615398007,132999897,/vehicle_frd,0,0,32.88475927210682,-117.1228057552321,146.58670171017076,0.0,0.0,0.0,0.0,0.0,0.0,0.0,0.0,0.0,0
1615398007.153,0,1615398007,153000116,/vehicle_frd,0,0,32.884759257645264,-117.1228052968439,146.58700976463035,0.0,0.0,0.0,0.0,0.0,0.0,0.0,0.0,0.0,0
1615398007.173,0,1615398007,173000097,/vehicle_frd,0,0,32.8847592433611,-117.12280484031747,146.58731443042103,0.0,0.0,0.0,0.0,0.0,0.0,0.0,0.0,0.0,0
1615398007.193,0,1615398007,193000078,/vehicle_frd,0,0,32.88475922915735,-117.12280438098307,146.58762293744763,0.0,0.0,0.0,0.0,0.0,0.0,0.0,0.0,0.0,0
1615398007.213,0,1615398007,213000059,/vehicle_frd,0,0,32.884759215017844,-117.12280391977646,146.5879361463979,0.0,0.0,0.0,0.0,0.0,0.0,0.0,0.0,0.0,0
1615398007.233,0,1615398007,233000040,/vehicle_frd,0,0,32.88475920102273,-117.12280345762925,146.5882554946861,0.0,0.0,0.0,0.0,0.0,0.0,0.0,0.0,0.0,0
1615398007.253,0,1615398007,253000021,/vehicle_frd,0,0,32.88475918698429,-117.12280298894062,146.58858601805974,0.0,0.0,0.0,0.0,0.0,0.0,0.0,0.0,0.0,0
1615398007.273,0,1615398007,273000002,/vehicle_frd,0,0,32.88475920281014,-117.12280250361445,146.58474115396157,0.0,0.0,0.0,0.0,0.0,0.0,0.0,0.0,0.0,0
1615398007.293,0,1615398007,292999983,/vehicle_frd,0,0,32.88475918922847,-117.1228020405168,146.58508282130236,0.0,0.0,0.0,0.0,0.0,0.0,0.0,0.0,0.0,0
1615398007.313,0,1615398007,312999964,/vehicle_frd,0,0,32.884759175823206,-117.12280157741256,146.5854316243504,0.0,0.0,0.0,0.0,0.0,0.0,0.0,0.0,0.0,0
1615398007.333,0,1615398007,332999945,/vehicle_frd,0,0,32.88475916264705,-117.12280111803874,146.58578468517516,0.0,0.0,0.0,0.0,0.0,0.0,0.0,0.0,0.0,0
1615398007.353,0,1615398007,352999926,/vehicle_frd,0,0,32.88475914972908,-117.12280066239417,146.5861410969033,0.0,0.0,0.0,0.0,0.0,0.0,0.0,0.0,0.0,0
1615398007.373,0,1615398007,372999907,/vehicle_frd,0,0,32.88475913693217,-117.12280020581059,146.58650406314467,0.0,0.0,0.0,0.0,0.0,0.0,0.0,0.0,0.0,0
1615398007.393,0,1615398007,392999887,/vehicle_frd,0,0,32.884759124387934,-117.12279975202165,146.58686849175564,0.0,0.0,0.0,0.0,0.0,0.0,0.0,0.0,0.0,0
1615398007.413,0,1615398007,413000107,/vehicle_frd,0,0,32.884759111759216,-117.12279928982375,146.5872420650749,0.0,0.0,0.0,0.0,0.0,0.0,0.0,0.0,0.0,0
1615398007.433,0,1615398007,433000088,/vehicle_frd,0,0,32.88475909917023,-117.12279882481945,146.58760995255653,0.0,0.0,0.0,0.0,0.0,0.0,0.0,0.0,0.0,0
1615398007.453,0,1615398007,453000069,/vehicle_frd,0,0,32.88475908665143,-117.1227983570085,146.58798110275166,0.0,0.0,0.0,0.0,0.0,0.0,0.0,0.0,0.0,0
1615398007.473,0,1615398007,473000050,/vehicle_frd,0,0,32.88475907436578,-117.12279789199305,146.58835135527832,0.0,0.0,0.0,0.0,0.0,0.0,0.0,0.0,0.0,0
1615398007.493,0,1615398007,493000031,/vehicle_frd,0,0,32.88475906246259,-117.12279743350643,146.58871880500814,0.0,0.0,0.0,0.0,0.0,0.0,0.0,0.0,0.0,0
1615398007.513,0,1615398007,513000011,/vehicle_frd,0,0,32.88475905069657,-117.12279697594994,146.5890900115211,0.0,0.0,0.0,0.0,0.0,0.0,0.0,0.0,0.0,0
1615398007.533,0,1615398007,532999992,/vehicle_frd,0,0,32.88475903902513,-117.12279651465201,146.58947030383536,0.0,0.0,0.0,0.0,0.0,0.0,0.0,0.0,0.0,0
1615398007.554,0,1615398007,553999901,/vehicle_frd,0,0,32.88475902734689,-117.12279604587789,146.5898634521651,0.0,0.0,0.0,0.0,0.0,0.0,0.0,0.0,0.0,0
1615398007.574,0,1615398007,573999882,/vehicle_frd,0,0,32.88475901566543,-117.12279557149684,146.59026834413277,0.0,0.0,0.0,0.0,0.0,0.0,0.0,0.0,0.0,0
1615398007.594,0,1615398007,594000101,/vehicle_frd,0,0,32.884759004206884,-117.12279510084724,146.59067714785647,0.0,0.0,0.0,0.0,0.0,0.0,0.0,0.0,0.0,0
1615398007.614,0,1615398007,614000082,/vehicle_frd,0,0,32.88475899290143,-117.12279463019325,146.59109389725631,0.0,0.0,0.0,0.0,0.0,0.0,0.0,0.0,0.0,0
1615398007.634,0,1615398007,634000063,/vehicle_frd,0,0,32.884758981891345,-117.12279416513779,146.5915143649989,0.0,0.0,0.0,0.0,0.0,0.0,0.0,0.0,0.0,0
1615398007.654,0,1615398007,654000044,/vehicle_frd,0,0,32.88475897100936,-117.12279370101376,146.59194184765448,0.0,0.0,0.0,0.0,0.0,0.0,0.0,0.0,0.0,0
1615398007.674,0,1615398007,674000025,/vehicle_frd,0,0,32.88475896023051,-117.12279323314849,146.59237902488422,0.0,0.0,0.0,0.0,0.0,0.0,0.0,0.0,0.0,0
1615398007.694,0,1615398007,694000006,/vehicle_frd,0,0,32.88475894974388,-117.12279277181528,146.592806219983,0.0,0.0,0.0,0.0,0.0,0.0,0.0,0.0,0.0,0
1615398007.714,0,1615398007,713999987,/vehicle_frd,0,0,32.88475893955031,-117.12279231514582,146.59323162109763,0.0,0.0,0.0,0.0,0.0,0.0,0.0,0.0,0.0,0
1615398007.734,0,1615398007,733999968,/vehicle_frd,0,0,32.884758929694826,-117.12279186781107,146.59364776630343,0.0,0.0,0.0,0.0,0.0,0.0,0.0,0.0,0.0,0
1615398007.754,0,1615398007,753999949,/vehicle_frd,0,0,32.88475891980393,-117.12279141206636,146.5940684997465,0.0,0.0,0.0,0.0,0.0,0.0,0.0,0.0,0.0,0
1615398007.774,0,1615398007,773999929,/vehicle_frd,0,0,32.88475890986107,-117.1227909441738,146.59449345873833,0.0,0.0,0.0,0.0,0.0,0.0,0.0,0.0,0.0,0
1615398007.794,0,1615398007,793999910,/vehicle_frd,0,0,32.884758899936514,-117.12279046880381,146.59491699325827,0.0,0.0,0.0,0.0,0.0,0.0,0.0,0.0,0.0,0
1615398007.814,0,1615398007,813999891,/vehicle_frd,0,0,32.88475889063036,-117.12279001490842,146.59531305311313,0.0,0.0,0.0,0.0,0.0,0.0,0.0,0.0,0.0,0
1615398007.834,0,1615398007,834000111,/vehicle_frd,0,0,32.88475888180832,-117.12278957595026,146.59568848565908,0.0,0.0,0.0,0.0,0.0,0.0,0.0,0.0,0.0,0
1615398007.854,0,1615398007,854000092,/vehicle_frd,0,0,32.88475883963989,-117.12278912781265,146.59037407074555,0.0,0.0,0.0,0.0,0.0,0.0,0.0,0.0,0.0,0
1615398007.874,0,1615398007,874000072,/vehicle_frd,0,0,32.88475883151236,-117.12278870752347,146.59072088639385,0.0,0.0,0.0,0.0,0.0,0.0,0.0,0.0,0.0,0
1615398007.894,0,1615398007,894000053,/vehicle_frd,0,0,32.8847588230386,-117.12278826201246,146.5910812418289,0.0,0.0,0.0,0.0,0.0,0.0,0.0,0.0,0.0,0
1615398007.914,0,1615398007,914000034,/vehicle_frd,0,0,32.88475881498714,-117.12278783050644,146.59142287626537,0.0,0.0,0.0,0.0,0.0,0.0,0.0,0.0,0.0,0
