Time,header.seq,header.stamp.secs,header.stamp.nsecs,header.frame_id,status.status,status.service,latitude,longitude,altitude,position_covariance_0,position_covariance_1,position_covariance_2,position_covariance_3,position_covariance_4,position_covariance_5,position_covariance_6,position_covariance_7,position_covariance_8,position_covariance_type
1615423047.015,0,1615423047,15000105,/vehicle_frd,0,0,32.882983017919265,-117.11779402760946,147.6853620823091,0.0,0.0,0.0,0.0,0.0,0.0,0.0,0.0,0.0,0
1615423047.035,0,1615423047,35000086,/vehicle_frd,0,0,32.882983017919265,-117.11779402760946,147.6853620823091,0.0,0.0,0.0,0.0,0.0,0.0,0.0,0.0,0.0,0
1615423047.055,0,1615423047,55000067,/vehicle_frd,0,0,32.882983017918384,-117.11779402760925,147.68536198230908,0.0,0.0,0.0,0.0,0.0,0.0,0.0,0.0,0.0,0
1615423047.075,0,1615423047,75000048,/vehicle_frd,0,0,32.882983017918384,-117.11779402760925,147.68536198230908,0.0,0.0,0.0,0.0,0.0,0.0,0.0,0.0,0.0,0
1615423047.095,0,1615423047,95000029,/vehicle_frd,0,0,32.882983017918384,-117.11779402760925,147.68536198230908,0.0,0.0,0.0,0.0,0.0,0.0,0.0,0.0,0.0,0
1615423047.115,0,1615423047,115000010,/vehicle_frd,0,0,32.882983017918384,-117.11779402760925,147.68536198230908,0.0,0.0,0.0,0.0,0.0,0.0,0.0,0.0,0.0,0
1615423047.135,0,1615423047,134999990,/vehicle_frd,0,0,32.882983017918384,-117.11779402760925,147.68536198230908,0.0,0.0,0.0,0.0,0.0,0.0,0.0,0.0,0.0,0
1615423047.155,0,1615423047,154999971,/vehicle_frd,0,0,32.882983017918384,-117.11779402760925,147.68536198230908,0.0,0.0,0.0,0.0,0.0,0.0,0.0,0.0,0.0,0
1615423047.175,0,1615423047,174999952,/vehicle_frd,0,0,32.882983017918384,-117.11779402760925,147.68536198230908,0.0,0.0,0.0,0.0,0.0,0.0,0.0,0.0,0.0,0
1615423047.195,0,1615423047,194999933,/vehicle_frd,0,0,32.882983017918384,-117.11779402760925,147.68536198230908,0.0,0.0,0.0,0.0,0.0,0.0,0.0,0.0,0.0,0
1615423047.215,0,1615423047,214999914,/vehicle_frd,0,0,32.882983017918384,-117.11779402760925,147.68536198230908,0.0,0.0,0.0,0.0,0.0,0.0,0.0,0.0,0.0,0
1615423047.235,0,1615423047,234999895,/vehicle_frd,0,0,32.882983017918384,-117.11779402760925,147.68536198230908,0.0,0.0,0.0,0.0,0.0,0.0,0.0,0.0,0.0,0
1615423047.255,0,1615423047,255000114,/vehicle_frd,0,0,32.882983017918384,-117.11779402760925,147.68536198230908,0.0,0.0,0.0,0.0,0.0,0.0,0.0,0.0,0.0,0
1615423047.275,0,1615423047,275000095,/vehicle_frd,0,0,32.8829830179175,-117.11779402760904,147.68536188230908,0.0,0.0,0.0,0.0,0.0,0.0,0.0,0.0,0.0,0
1615423047.295,0,1615423047,295000076,/vehicle_frd,0,0,32.8829830179175,-117.11779402760904,147.68536188230908,0.0,0.0,0.0,0.0,0.0,0.0,0.0,0.0,0.0,0
1615423047.315,0,1615423047,315000057,/vehicle_frd,0,0,32.8829830179175,-117.11779402760904,147.68536188230908,0.0,0.0,0.0,0.0,0.0,0.0,0.0,0.0,0.0,0
1615423047.335,0,1615423047,335000038,/vehicle_frd,0,0,32.8829830179175,-117.11779402760904,147.68536188230908,0.0,0.0,0.0,0.0,0.0,0.0,0.0,0.0,0.0,0
1615423047.355,0,1615423047,355000019,/vehicle_frd,0,0,32.8829830179175,-117.11779402760904,147.68536188230908,0.0,0.0,0.0,0.0,0.0,0.0,0.0,0.0,0.0,0
1615423047.375,0,1615423047,375000000,/vehicle_frd,0,0,32.8829830179175,-117.11779402760904,147.68536188230908,0.0,0.0,0.0,0.0,0.0,0.0,0.0,0.0,0.0,0
1615423047.395,0,1615423047,394999981,/vehicle_frd,0,0,32.8829830179175,-117.11779402760904,147.68536188230908,0.0,0.0,0.0,0.0,0.0,0.0,0.0,0.0,0.0,0
1615423047.415,0,1615423047,414999962,/vehicle_frd,0,0,32.8829830179175,-117.11779402760904,147.68536188230908,0.0,0.0,0.0,0.0,0.0,0.0,0.0,0.0,0.0,0
1615423047.435,0,1615423047,434999943,/vehicle_frd,0,0,32.8829830179175,-117.11779402760904,147.68536188230908,0.0,0.0,0.0,0.0,0.0,0.0,0.0,0.0,0.0,0
1615423047.455,0,1615423047,454999924,/vehicle_frd,0,0,32.8829830179175,-117.11779402760904,147.68536188230908,0.0,0.0,0.0,0.0,0.0,0.0,0.0,0.0,0.0,0
1615423047.475,0,1615423047,474999905,/vehicle_frd,0,0,32.88298301791661,-117.11779402760882,147.6853617823091,0.0,0.0,0.0,0.0,0.0,0.0,0.0,0.0,0.0,0
1615423047.495,0,1615423047,494999886,/vehicle_frd,0,0,32.88298301791661,-117.11779402760882,147.6853617823091,0.0,0.0,0.0,0.0,0.0,0.0,0.0,0.0,0.0,0
1615423047.515,0,1615423047,515000105,/vehicle_frd,0,0,32.88298301791661,-117.11779402760882,147.6853617823091,0.0,0.0,0.0,0.0,0.0,0.0,0.0,0.0,0.0,0
1615423047.535,0,1615423047,535000086,/vehicle_frd,0,0,32.88298301791661,-117.11779402760882,147.6853617823091,0.0,0.0,0.0,0.0,0.0,0.0,0.0,0.0,0.0,0
1615423047.555,0,1615423047,555000067,/vehicle_frd,0,0,32.88298301791661,-117.11779402760882,147.6853617823091,0.0,0.0,0.0,0.0,0.0,0.0,0.0,0.0,0.0,0
1615423047.575,0,1615423047,575000048,/vehicle_frd,0,0,32.88298301791661,-117.11779402760882,147.6853617823091,0.0,0.0,0.0,0.0,0.0,0.0,0.0,0.0,0.0,0
1615423047.595,0,1615423047,595000029,/vehicle_frd,0,0,32.88298301791661,-117.11779402760882,147.6853617823091,0.0,0.0,0.0,0.0,0.0,0.0,0.0,0.0,0.0,0
1615423047.615,0,1615423047,615000010,/vehicle_frd,0,0,32.88298301791661,-117.11779402760882,147.6853617823091,0.0,0.0,0.0,0.0,0.0,0.0,0.0,0.0,0.0,0
1615423047.635,0,1615423047,634999990,/vehicle_frd,0,0,32.88298301791661,-117.11779402760882,147.6853617823091,0.0,0.0,0.0,0.0,0.0,0.0,0.0,0.0,0.0,0
1615423047.655,0,1615423047,654999971,/vehicle_frd,0,0,32.88298301791661,-117.11779402760882,147.6853617823091,0.0,0.0,0.0,0.0,0.0,0.0,0.0,0.0,0.0,0
1615423047.675,0,1615423047,674999952,/vehicle_frd,0,0,32.88298301791573,-117.1177940276086,147.6853616823091,0.0,0.0,0.0,0.0,0.0,0.0,0.0,0.0,0.0,0
1615423047.695,0,1615423047,694999933,/vehicle_frd,0,0,32.88298301791573,-117.1177940276086,147.6853616823091,0.0,0.0,0.0,0.0,0.0,0.0,0.0,0.0,0.0,0
1615423047.715,0,1615423047,714999914,/vehicle_frd,0,0,32.88298301791573,-117.1177940276086,147.6853616823091,0.0,0.0,0.0,0.0,0.0,0.0,0.0,0.0,0.0,0
1615423047.735,0,1615423047,734999895,/vehicle_frd,0,0,32.88298301791573,-117.1177940276086,147.6853616823091,0.0,0.0,0.0,0.0,0.0,0.0,0.0,0.0,0.0,0
1615423047.755,0,1615423047,755000114,/vehicle_frd,0,0,32.88298301791573,-117.1177940276086,147.6853616823091,0.0,0.0,0.0,0.0,0.0,0.0,0.0,0.0,0.0,0
1615423047.775,0,1615423047,775000095,/vehicle_frd,0,0,32.88298301791573,-117.1177940276086,147.6853616823091,0.0,0.0,0.0,0.0,0.0,0.0,0.0,0.0,0.0,0
1615423047.795,0,1615423047,795000076,/vehicle_frd,0,0,32.88298301791573,-117.1177940276086,147.6853616823091,0.0,0.0,0.0,0.0,0.0,0.0,0.0,0.0,0.0,0
1615423047.815,0,1615423047,815000057,/vehicle_frd,0,0,32.88298301791573,-117.1177940276086,147.6853616823091,0.0,0.0,0.0,0.0,0.0,0.0,0.0,0.0,0.0,0
1615423047.835,0,1615423047,835000038,/vehicle_frd,0,0,32.88298301791573,-117.1177940276086,147.6853616823091,0.0,0.0,0.0,0.0,0.0,0.0,0.0,0.0,0.0,0
1615423047.855,0,1615423047,855000019,/vehicle_frd,0,0,32.88298301791573,-117.1177940276086,147.6853616823091,0.0,0.0,0.0,0.0,0.0,0.0,0.0,0.0,0.0,0
1615423047.875,0,1615423047,875000000,/vehicle_frd,0,0,32.882983017914846,-117.11779402760837,147.6853615823091,0.0,0.0,0.0,0.0,0.0,0.0,0.0,0.0,0.0,0
1615423047.895,0,1615423047,894999981,/vehicle_frd,0,0,32.882983017914846,-117.11779402760837,147.6853615823091,0.0,0.0,0.0,0.0,0.0,0.0,0.0,0.0,0.0,0
1615423047.915,0,1615423047,914999962,/vehicle_frd,0,0,32.882983017914846,-117.11779402760837,147.6853615823091,0.0,0.0,0.0,0.0,0.0,0.0,0.0,0.0,0.0,0
1615423047.935,0,1615423047,934999943,/vehicle_frd,0,0,32.882983017914846,-117.11779402760837,147.6853615823091,0.0,0.0,0.0,0.0,0.0,0.0,0.0,0.0,0.0,0
1615423047.955,0,1615423047,954999924,/vehicle_frd,0,0,32.882983017914846,-117.11779402760837,147.6853615823091,0.0,0.0,0.0,0.0,0.0,0.0,0.0,0.0,0.0,0
1615423047.975,0,1615423047,974999905,/vehicle_frd,0,0,32.882983017914846,-117.11779402760837,147.6853615823091,0.0,0.0,0.0,0.0,0.0,0.0,0.0,0.0,0.0,0
1615423047.995,0,1615423047,994999886,/vehicle_frd,0,0,32.882983017914846,-117.11779402760837,147.6853615823091,0.0,0.0,0.0,0.0,0.0,0.0,0.0,0.0,0.0,0
1615423048.015,0,1615423048,15000105,/vehicle_frd,0,0,32.882983017914846,-117.11779402760837,147.6853615823091,0.0,0.0,0.0,0.0,0.0,0.0,0.0,0.0,0.0,0
1615423048.035,0,1615423048,35000086,/vehicle_frd,0,0,32.882983017914846,-117.11779402760837,147.6853615823091,0.0,0.0,0.0,0.0,0.0,0.0,0.0,0.0,0.0,0
1615423048.055,0,1615423048,55000067,/vehicle_frd,0,0,32.882983017914846,-117.11779402760837,147.6853615823091,0.0,0.0,0.0,0.0,0.0,0.0,0.0,0.0,0.0,0
1615423048.075,0,1615423048,75000048,/vehicle_frd,0,0,32.88298301791396,-117.11779402760816,147.68536148230908,0.0,0.0,0.0,0.0,0.0,0.0,0.0,0.0,0.0,0
1615423048.095,0,1615423048,95000029,/vehicle_frd,0,0,32.88298301791396,-117.11779402760816,147.68536148230908,0.0,0.0,0.0,0.0,0.0,0.0,0.0,0.0,0.0,0
1615423048.115,0,1615423048,115000010,/vehicle_frd,0,0,32.88298301791396,-117.11779402760816,147.68536148230908,0.0,0.0,0.0,0.0,0.0,0.0,0.0,0.0,0.0,0
1615423048.135,0,1615423048,134999990,/vehicle_frd,0,0,32.88298301791396,-117.11779402760816,147.68536148230908,0.0,0.0,0.0,0.0,0.0,0.0,0.0,0.0,0.0,0
1615423048.155,0,1615423048,154999971,/vehicle_frd,0,0,32.88298301791396,-117.11779402760816,147.68536148230908,0.0,0.0,0.0,0.0,0.0,0.0,0.0,0.0,0.0,0
1615423048.175,0,1615423048,174999952,/vehicle_frd,0,0,32.88298301791396,-117.11779402760816,147.68536148230908,0.0,0.0,0.0,0.0,0.0,0.0,0.0,0.0,0.0,0
1615423048.195,0,1615423048,194999933,/vehicle_frd,0,0,32.88298301791396,-117.11779402760816,147.68536148230908,0.0,0.0,0.0,0.0,0.0,0.0,0.0,0.0,0.0,0
1615423048.215,0,1615423048,214999914,/vehicle_frd,0,0,32.88298301791396,-117.11779402760816,147.68536148230908,0.0,0.0,0.0,0.0,0.0,0.0,0.0,0.0,0.0,0
1615423048.235,0,1615423048,234999895,/vehicle_frd,0,0,32.88298301791396,-117.11779402760816,147.68536148230908,0.0,0.0,0.0,0.0,0.0,0.0,0.0,0.0,0.0,0
1615423048.255,0,1615423048,255000114,/vehicle_frd,0,0,32.88298301791396,-117.11779402760816,147.68536148230908,0.0,0.0,0.0,0.0,0.0,0.0,0.0,0.0,0.0,0
1615423048.275,0,1615423048,275000095,/vehicle_frd,0,0,32.88298301791308,-117.11779402760793,147.68536138230905,0.0,0.0,0.0,0.0,0.0,0.0,0.0,0.0,0.0,0
1615423048.295,0,1615423048,295000076,/vehicle_frd,0,0,32.88298301791308,-117.11779402760793,147.68536138230905,0.0,0.0,0.0,0.0,0.0,0.0,0.0,0.0,0.0,0
1615423048.315,0,1615423048,315000057,/vehicle_frd,0,0,32.88298301791308,-117.11779402760793,147.68536138230905,0.0,0.0,0.0,0.0,0.0,0.0,0.0,0.0,0.0,0
1615423048.335,0,1615423048,335000038,/vehicle_frd,0,0,32.88298301791308,-117.11779402760793,147.68536138230905,0.0,0.0,0.0,0.0,0.0,0.0,0.0,0.0,0.0,0
1615423048.355,0,1615423048,355000019,/vehicle_frd,0,0,32.88298301791308,-117.11779402760793,147.68536138230905,0.0,0.0,0.0,0.0,0.0,0.0,0.0,0.0,0.0,0
1615423048.375,0,1615423048,375000000,/vehicle_frd,0,0,32.88298301791308,-117.11779402760793,147.68536138230905,0.0,0.0,0.0,0.0,0.0,0.0,0.0,0.0,0.0,0
1615423048.395,0,1615423048,394999981,/vehicle_frd,0,0,32.88298301791308,-117.11779402760793,147.68536138230905,0.0,0.0,0.0,0.0,0.0,0.0,0.0,0.0,0.0,0
1615423048.415,0,1615423048,414999962,/vehicle_frd,0,0,32.88298301791308,-117.11779402760793,147.68536138230905,0.0,0.0,0.0,0.0,0.0,0.0,0.0,0.0,0.0,0
1615423048.435,0,1615423048,434999943,/vehicle_frd,0,0,32.88298301791308,-117.11779402760793,147.68536138230905,0.0,0.0,0.0,0.0,0.0,0.0,0.0,0.0,0.0,0
1615423048.455,0,1615423048,454999924,/vehicle_frd,0,0,32.882983017912196,-117.11779402760772,147.6853612823091,0.0,0.0,0.0,0.0,0.0,0.0,0.0,0.0,0.0,0
1615423048.475,0,1615423048,474999905,/vehicle_frd,0,0,32.882983017912196,-117.11779402760772,147.6853612823091,0.0,0.0,0.0,0.0,0.0,0.0,0.0,0.0,0.0,0
1615423048.495,0,1615423048,494999886,/vehicle_frd,0,0,32.882983017912196,-117.11779402760772,147.6853612823091,0.0,0.0,0.0,0.0,0.0,0.0,0.0,0.0,0.0,0
1615423048.515,0,1615423048,515000105,/vehicle_frd,0,0,32.882983017912196,-117.11779402760772,147.6853612823091,0.0,0.0,0.0,0.0,0.0,0.0,0.0,0.0,0.0,0
1615423048.535,0,1615423048,535000086,/vehicle_frd,0,0,32.882983017912196,-117.11779402760772,147.6853612823091,0.0,0.0,0.0,0.0,0.0,0.0,0.0,0.0,0.0,0
1615423048.555,0,1615423048,555000067,/vehicle_frd,0,0,32.882983017912196,-117.11779402760772,147.6853612823091,0.0,0.0,0.0,0.0,0.0,0.0,0.0,0.0,0.0,0
1615423048.575,0,1615423048,575000048,/vehicle_frd,0,0,32.882983017912196,-117.11779402760772,147.6853612823091,0.0,0.0,0.0,0.0,0.0,0.0,0.0,0.0,0.0,0
1615423048.595,0,1615423048,595000029,/vehicle_frd,0,0,32.882983017912196,-117.11779402760772,147.6853612823091,0.0,0.0,0.0,0.0,0.0,0.0,0.0,0.0,0.0,0
1615423048.615,0,1615423048,615000010,/vehicle_frd,0,0,32.882983017912196,-117.11779402760772,147.6853612823091,0.0,0.0,0.0,0.0,0.0,0.0,0.0,0.0,0.0,0
1615423048.635,0,1615423048,634999990,/vehicle_frd,0,0,32.882983017912196,-117.11779402760772,147.6853612823091,0.0,0.0,0.0,0.0,0.0,0.0,0.0,0.0,0.0,0
1615423048.655,0,1615423048,654999971,/vehicle_frd,0,0,32.88298301791132,-117.11779402760749,147.6853611823091,0.0,0.0,0.0,0.0,0.0,0.0,0.0,0.0,0.0,0
1615423048.675,0,1615423048,674999952,/vehicle_frd,0,0,32.88298301791132,-117.11779402760749,147.6853611823091,0.0,0.0,0.0,0.0,0.0,0.0,0.0,0.0,0.0,0
1615423048.695,0,1615423048,694999933,/vehicle_frd,0,0,32.88298301791132,-117.11779402760749,147.6853611823091,0.0,0.0,0.0,0.0,0.0,0.0,0.0,0.0,0.0,0
1615423048.715,0,1615423048,714999914,/vehicle_frd,0,0,32.88298301791132,-117.11779402760749,147.6853611823091,0.0,0.0,0.0,0.0,0.0,0.0,0.0,0.0,0.0,0
1615423048.735,0,1615423048,734999895,/vehicle_frd,0,0,32.88298301791132,-117.11779402760749,147.6853611823091,0.0,0.0,0.0,0.0,0.0,0.0,0.0,0.0,0.0,0
1615423048.755,0,1615423048,755000114,/vehicle_frd,0,0,32.88298301791132,-117.11779402760749,147.6853611823091,0.0,0.0,0.0,0.0,0.0,0.0,0.0,0.0,0.0,0
1615423048.775,0,1615423048,775000095,/vehicle_frd,0,0,32.88298301791132,-117.11779402760749,147.6853611823091,0.0,0.0,0.0,0.0,0.0,0.0,0.0,0.0,0.0,0
1615423048.795,0,1615423048,795000076,/vehicle_frd,0,0,32.88298301791132,-117.11779402760749,147.6853611823091,0.0,0.0,0.0,0.0,0.0,0.0,0.0,0.0,0.0,0
1615423048.815,0,1615423048,815000057,/vehicle_frd,0,0,32.88298301791132,-117.11779402760749,147.6853611823091,0.0,0.0,0.0,0.0,0.0,0.0,0.0,0.0,0.0,0
1615423048.835,0,1615423048,835000038,/vehicle_frd,0,0,32.88298301791132,-117.11779402760749,147.6853611823091,0.0,0.0,0.0,0.0,0.0,0.0,0.0,0.0,0.0,0
1615423048.855,0,1615423048,855000019,/vehicle_frd,0,0,32.88298301791042,-117.11779402760733,147.6853610823091,0.0,0.0,0.0,0.0,0.0,0.0,0.0,0.0,0.0,0
1615423048.875,0,1615423048,875000000,/vehicle_frd,0,0,32.88298301791042,-117.11779402760733,147.6853610823091,0.0,0.0,0.0,0.0,0.0,0.0,0.0,0.0,0.0,0
1615423048.895,0,1615423048,894999981,/vehicle_frd,0,0,32.88298301791042,-117.11779402760733,147.6853610823091,0.0,0.0,0.0,0.0,0.0,0.0,0.0,0.0,0.0,0
1615423048.915,0,1615423048,914999962,/vehicle_frd,0,0,32.88298301791042,-117.11779402760733,147.6853610823091,0.0,0.0,0.0,0.0,0.0,0.0,0.0,0.0,0.0,0
1615423048.935,0,1615423048,934999943,/vehicle_frd,0,0,32.88298301791042,-117.11779402760733,147.6853610823091,0.0,0.0,0.0,0.0,0.0,0.0,0.0,0.0,0.0,0
1615423048.955,0,1615423048,954999924,/vehicle_frd,0,0,32.88298301791042,-117.11779402760733,147.6853610823091,0.0,0.0,0.0,0.0,0.0,0.0,0.0,0.0,0.0,0
1615423048.975,0,1615423048,974999905,/vehicle_frd,0,0,32.88298301791042,-117.11779402760733,147.6853610823091,0.0,0.0,0.0,0.0,0.0,0.0,0.0,0.0,0.0,0
1615423048.995,0,1615423048,994999886,/vehicle_frd,0,0,32.88298301791042,-117.11779402760733,147.6853610823091,0.0,0.0,0.0,0.0,0.0,0.0,0.0,0.0,0.0,0
1615423049.015,0,1615423049,15000105,/vehicle_frd,0,0,32.88298301791042,-117.11779402760733,147.6853610823091,0.0,0.0,0.0,0.0,0.0,0.0,0.0,0.0,0.0,0
1615423049.035,0,1615423049,35000086,/vehicle_frd,0,0,32.88298301791042,-117.11779402760733,147.6853610823091,0.0,0.0,0.0,0.0,0.0,0.0,0.0,0.0,0.0,0
1615423049.055,0,1615423049,55000067,/vehicle_frd,0,0,32.88298301790953,-117.11779402760719,147.68536098230908,0.0,0.0,0.0,0.0,0.0,0.0,0.0,0.0,0.0,0
1615423049.075,0,1615423049,75000048,/vehicle_frd,0,0,32.88298301790953,-117.11779402760719,147.68536098230908,0.0,0.0,0.0,0.0,0.0,0.0,0.0,0.0,0.0,0
1615423049.095,0,1615423049,95000029,/vehicle_frd,0,0,32.88298301790953,-117.11779402760719,147.68536098230908,0.0,0.0,0.0,0.0,0.0,0.0,0.0,0.0,0.0,0
1615423049.115,0,1615423049,115000010,/vehicle_frd,0,0,32.88298301790953,-117.11779402760719,147.68536098230908,0.0,0.0,0.0,0.0,0.0,0.0,0.0,0.0,0.0,0
1615423049.135,0,1615423049,134999990,/vehicle_frd,0,0,32.88298301790953,-117.11779402760719,147.68536098230908,0.0,0.0,0.0,0.0,0.0,0.0,0.0,0.0,0.0,0
1615423049.155,0,1615423049,154999971,/vehicle_frd,0,0,32.88298301790953,-117.11779402760719,147.68536098230908,0.0,0.0,0.0,0.0,0.0,0.0,0.0,0.0,0.0,0
1615423049.175,0,1615423049,174999952,/vehicle_frd,0,0,32.88298301790953,-117.11779402760719,147.68536098230908,0.0,0.0,0.0,0.0,0.0,0.0,0.0,0.0,0.0,0
1615423049.195,0,1615423049,194999933,/vehicle_frd,0,0,32.88298301790953,-117.11779402760719,147.68536098230908,0.0,0.0,0.0,0.0,0.0,0.0,0.0,0.0,0.0,0
1615423049.215,0,1615423049,214999914,/vehicle_frd,0,0,32.88298301790953,-117.11779402760719,147.68536098230908,0.0,0.0,0.0,0.0,0.0,0.0,0.0,0.0,0.0,0
1615423049.235,0,1615423049,234999895,/vehicle_frd,0,0,32.88298301790953,-117.11779402760719,147.68536098230908,0.0,0.0,0.0,0.0,0.0,0.0,0.0,0.0,0.0,0
1615423049.255,0,1615423049,255000114,/vehicle_frd,0,0,32.88298301790864,-117.11779402760703,147.68536088230908,0.0,0.0,0.0,0.0,0.0,0.0,0.0,0.0,0.0,0
1615423049.275,0,1615423049,275000095,/vehicle_frd,0,0,32.88298301790864,-117.11779402760703,147.68536088230908,0.0,0.0,0.0,0.0,0.0,0.0,0.0,0.0,0.0,0
1615423049.295,0,1615423049,295000076,/vehicle_frd,0,0,32.88298301790864,-117.11779402760703,147.68536088230908,0.0,0.0,0.0,0.0,0.0,0.0,0.0,0.0,0.0,0
1615423049.315,0,1615423049,315000057,/vehicle_frd,0,0,32.88298301790864,-117.11779402760703,147.68536088230908,0.0,0.0,0.0,0.0,0.0,0.0,0.0,0.0,0.0,0
1615423049.335,0,1615423049,335000038,/vehicle_frd,0,0,32.88298301790864,-117.11779402760703,147.68536088230908,0.0,0.0,0.0,0.0,0.0,0.0,0.0,0.0,0.0,0
1615423049.355,0,1615423049,355000019,/vehicle_frd,0,0,32.88298301790864,-117.11779402760703,147.68536088230908,0.0,0.0,0.0,0.0,0.0,0.0,0.0,0.0,0.0,0
1615423049.375,0,1615423049,375000000,/vehicle_frd,0,0,32.88298301790864,-117.11779402760703,147.68536088230908,0.0,0.0,0.0,0.0,0.0,0.0,0.0,0.0,0.0,0
1615423049.395,0,1615423049,394999981,/vehicle_frd,0,0,32.88298301790864,-117.11779402760703,147.68536088230908,0.0,0.0,0.0,0.0,0.0,0.0,0.0,0.0,0.0,0
1615423049.415,0,1615423049,414999962,/vehicle_frd,0,0,32.88298301790864,-117.11779402760703,147.68536088230908,0.0,0.0,0.0,0.0,0.0,0.0,0.0,0.0,0.0,0
1615423049.435,0,1615423049,434999943,/vehicle_frd,0,0,32.88298301790864,-117.11779402760703,147.68536088230908,0.0,0.0,0.0,0.0,0.0,0.0,0.0,0.0,0.0,0
1615423049.455,0,1615423049,454999924,/vehicle_frd,0,0,32.88298301790774,-117.11779402760692,147.6853607823091,0.0,0.0,0.0,0.0,0.0,0.0,0.0,0.0,0.0,0
1615423049.475,0,1615423049,474999905,/vehicle_frd,0,0,32.88298301790774,-117.11779402760692,147.6853607823091,0.0,0.0,0.0,0.0,0.0,0.0,0.0,0.0,0.0,0
1615423049.495,0,1615423049,494999886,/vehicle_frd,0,0,32.88298301790774,-117.11779402760692,147.6853607823091,0.0,0.0,0.0,0.0,0.0,0.0,0.0,0.0,0.0,0
1615423049.515,0,1615423049,515000105,/vehicle_frd,0,0,32.88298301790774,-117.11779402760692,147.6853607823091,0.0,0.0,0.0,0.0,0.0,0.0,0.0,0.0,0.0,0
1615423049.535,0,1615423049,535000086,/vehicle_frd,0,0,32.88298301790774,-117.11779402760692,147.6853607823091,0.0,0.0,0.0,0.0,0.0,0.0,0.0,0.0,0.0,0
1615423049.555,0,1615423049,555000067,/vehicle_frd,0,0,32.88298301790774,-117.11779402760692,147.6853607823091,0.0,0.0,0.0,0.0,0.0,0.0,0.0,0.0,0.0,0
1615423049.575,0,1615423049,575000048,/vehicle_frd,0,0,32.88298301790774,-117.11779402760692,147.6853607823091,0.0,0.0,0.0,0.0,0.0,0.0,0.0,0.0,0.0,0
1615423049.595,0,1615423049,595000029,/vehicle_frd,0,0,32.88298301790774,-117.11779402760692,147.6853607823091,0.0,0.0,0.0,0.0,0.0,0.0,0.0,0.0,0.0,0
1615423049.615,0,1615423049,615000010,/vehicle_frd,0,0,32.88298301790774,-117.11779402760692,147.6853607823091,0.0,0.0,0.0,0.0,0.0,0.0,0.0,0.0,0.0,0
1615423049.635,0,1615423049,634999990,/vehicle_frd,0,0,32.88298301790774,-117.11779402760692,147.6853607823091,0.0,0.0,0.0,0.0,0.0,0.0,0.0,0.0,0.0,0
1615423049.655,0,1615423049,654999971,/vehicle_frd,0,0,32.882983017906845,-117.1177940276068,147.68536068230907,0.0,0.0,0.0,0.0,0.0,0.0,0.0,0.0,0.0,0
1615423049.675,0,1615423049,674999952,/vehicle_frd,0,0,32.882983017906845,-117.1177940276068,147.68536068230907,0.0,0.0,0.0,0.0,0.0,0.0,0.0,0.0,0.0,0
1615423049.695,0,1615423049,694999933,/vehicle_frd,0,0,32.882983017906845,-117.1177940276068,147.68536068230907,0.0,0.0,0.0,0.0,0.0,0.0,0.0,0.0,0.0,0
1615423049.715,0,1615423049,714999914,/vehicle_frd,0,0,32.882983017906845,-117.1177940276068,147.68536068230907,0.0,0.0,0.0,0.0,0.0,0.0,0.0,0.0,0.0,0
1615423049.735,0,1615423049,734999895,/vehicle_frd,0,0,32.882983017906845,-117.1177940276068,147.68536068230907,0.0,0.0,0.0,0.0,0.0,0.0,0.0,0.0,0.0,0
1615423049.755,0,1615423049,755000114,/vehicle_frd,0,0,32.882983017906845,-117.1177940276068,147.68536068230907,0.0,0.0,0.0,0.0,0.0,0.0,0.0,0.0,0.0,0
1615423049.775,0,1615423049,775000095,/vehicle_frd,0,0,32.882983017906845,-117.1177940276068,147.68536068230907,0.0,0.0,0.0,0.0,0.0,0.0,0.0,0.0,0.0,0
1615423049.795,0,1615423049,795000076,/vehicle_frd,0,0,32.882983017906845,-117.1177940276068,147.68536068230907,0.0,0.0,0.0,0.0,0.0,0.0,0.0,0.0,0.0,0
1615423049.815,0,1615423049,815000057,/vehicle_frd,0,0,32.882983017906845,-117.1177940276068,147.68536068230907,0.0,0.0,0.0,0.0,0.0,0.0,0.0,0.0,0.0,0
1615423049.835,0,1615423049,835000038,/vehicle_frd,0,0,32.882983017906845,-117.1177940276068,147.68536068230907,0.0,0.0,0.0,0.0,0.0,0.0,0.0,0.0,0.0,0
1615423049.855,0,1615423049,855000019,/vehicle_frd,0,0,32.88298301790595,-117.11779402760668,147.6853605823091,0.0,0.0,0.0,0.0,0.0,0.0,0.0,0.0,0.0,0
1615423049.875,0,1615423049,875000000,/vehicle_frd,0,0,32.88298301790595,-117.11779402760668,147.6853605823091,0.0,0.0,0.0,0.0,0.0,0.0,0.0,0.0,0.0,0
1615423049.895,0,1615423049,894999981,/vehicle_frd,0,0,32.88298301790595,-117.11779402760668,147.6853605823091,0.0,0.0,0.0,0.0,0.0,0.0,0.0,0.0,0.0,0
1615423049.915,0,1615423049,914999962,/vehicle_frd,0,0,32.88298301790595,-117.11779402760668,147.6853605823091,0.0,0.0,0.0,0.0,0.0,0.0,0.0,0.0,0.0,0
1615423049.935,0,1615423049,934999943,/vehicle_frd,0,0,32.88298301790595,-117.11779402760668,147.6853605823091,0.0,0.0,0.0,0.0,0.0,0.0,0.0,0.0,0.0,0
1615423049.955,0,1615423049,954999924,/vehicle_frd,0,0,32.88298301790595,-117.11779402760668,147.6853605823091,0.0,0.0,0.0,0.0,0.0,0.0,0.0,0.0,0.0,0
1615423049.975,0,1615423049,974999905,/vehicle_frd,0,0,32.88298301790595,-117.11779402760668,147.6853605823091,0.0,0.0,0.0,0.0,0.0,0.0,0.0,0.0,0.0,0
1615423049.995,0,1615423049,994999886,/vehicle_frd,0,0,32.88298301790595,-117.11779402760668,147.6853605823091,0.0,0.0,0.0,0.0,0.0,0.0,0.0,0.0,0.0,0
1615423050.015,0,1615423050,15000105,/vehicle_frd,0,0,32.88298301790595,-117.11779402760668,147.6853605823091,0.0,0.0,0.0,0.0,0.0,0.0,0.0,0.0,0.0,0
1615423050.035,0,1615423050,35000086,/vehicle_frd,0,0,32.88298301790595,-117.11779402760668,147.6853605823091,0.0,0.0,0.0,0.0,0.0,0.0,0.0,0.0,0.0,0
1615423050.055,0,1615423050,55000067,/vehicle_frd,0,0,32.88298301790595,-117.11779402760668,147.6853605823091,0.0,0.0,0.0,0.0,0.0,0.0,0.0,0.0,0.0,0
1615423050.075,0,1615423050,75000048,/vehicle_frd,0,0,32.88298301790505,-117.11779402760652,147.68536048230908,0.0,0.0,0.0,0.0,0.0,0.0,0.0,0.0,0.0,0
1615423050.095,0,1615423050,95000029,/vehicle_frd,0,0,32.88298301790505,-117.11779402760652,147.68536048230908,0.0,0.0,0.0,0.0,0.0,0.0,0.0,0.0,0.0,0
1615423050.115,0,1615423050,115000010,/vehicle_frd,0,0,32.88298301790505,-117.11779402760652,147.68536048230908,0.0,0.0,0.0,0.0,0.0,0.0,0.0,0.0,0.0,0
1615423050.135,0,1615423050,134999990,/vehicle_frd,0,0,32.88298301790505,-117.11779402760652,147.68536048230908,0.0,0.0,0.0,0.0,0.0,0.0,0.0,0.0,0.0,0
1615423050.155,0,1615423050,154999971,/vehicle_frd,0,0,32.88298301790505,-117.11779402760652,147.68536048230908,0.0,0.0,0.0,0.0,0.0,0.0,0.0,0.0,0.0,0
1615423050.175,0,1615423050,174999952,/vehicle_frd,0,0,32.88298301790505,-117.11779402760652,147.68536048230908,0.0,0.0,0.0,0.0,0.0,0.0,0.0,0.0,0.0,0
1615423050.195,0,1615423050,194999933,/vehicle_frd,0,0,32.88298301790505,-117.11779402760652,147.68536048230908,0.0,0.0,0.0,0.0,0.0,0.0,0.0,0.0,0.0,0
1615423050.215,0,1615423050,214999914,/vehicle_frd,0,0,32.88298301790505,-117.11779402760652,147.68536048230908,0.0,0.0,0.0,0.0,0.0,0.0,0.0,0.0,0.0,0
1615423050.235,0,1615423050,234999895,/vehicle_frd,0,0,32.88298301790505,-117.11779402760652,147.68536048230908,0.0,0.0,0.0,0.0,0.0,0.0,0.0,0.0,0.0,0
1615423050.255,0,1615423050,255000114,/vehicle_frd,0,0,32.88298301790416,-117.11779402760637,147.68536038230909,0.0,0.0,0.0,0.0,0.0,0.0,0.0,0.0,0.0,0
1615423050.275,0,1615423050,275000095,/vehicle_frd,0,0,32.88298301790416,-117.11779402760637,147.68536038230909,0.0,0.0,0.0,0.0,0.0,0.0,0.0,0.0,0.0,0
1615423050.295,0,1615423050,295000076,/vehicle_frd,0,0,32.88298301790416,-117.11779402760637,147.68536038230909,0.0,0.0,0.0,0.0,0.0,0.0,0.0,0.0,0.0,0
1615423050.315,0,1615423050,315000057,/vehicle_frd,0,0,32.88298301790416,-117.11779402760637,147.68536038230909,0.0,0.0,0.0,0.0,0.0,0.0,0.0,0.0,0.0,0
1615423050.335,0,1615423050,335000038,/vehicle_frd,0,0,32.88298301790416,-117.11779402760637,147.68536038230909,0.0,0.0,0.0,0.0,0.0,0.0,0.0,0.0,0.0,0
1615423050.355,0,1615423050,355000019,/vehicle_frd,0,0,32.88298301790416,-117.11779402760637,147.68536038230909,0.0,0.0,0.0,0.0,0.0,0.0,0.0,0.0,0.0,0
1615423050.375,0,1615423050,375000000,/vehicle_frd,0,0,32.88298301790416,-117.11779402760637,147.68536038230909,0.0,0.0,0.0,0.0,0.0,0.0,0.0,0.0,0.0,0
1615423050.395,0,1615423050,394999981,/vehicle_frd,0,0,32.88298301790416,-117.11779402760637,147.68536038230909,0.0,0.0,0.0,0.0,0.0,0.0,0.0,0.0,0.0,0
1615423050.415,0,1615423050,414999962,/vehicle_frd,0,0,32.88298301790416,-117.11779402760637,147.68536038230909,0.0,0.0,0.0,0.0,0.0,0.0,0.0,0.0,0.0,0
1615423050.435,0,1615423050,434999943,/vehicle_frd,0,0,32.88298301790416,-117.11779402760637,147.68536038230909,0.0,0.0,0.0,0.0,0.0,0.0,0.0,0.0,0.0,0
1615423050.455,0,1615423050,454999924,/vehicle_frd,0,0,32.882983017903264,-117.11779402760621,147.6853602823091,0.0,0.0,0.0,0.0,0.0,0.0,0.0,0.0,0.0,0
1615423050.475,0,1615423050,474999905,/vehicle_frd,0,0,32.882983017903264,-117.11779402760621,147.6853602823091,0.0,0.0,0.0,0.0,0.0,0.0,0.0,0.0,0.0,0
1615423050.495,0,1615423050,494999886,/vehicle_frd,0,0,32.882983017903264,-117.11779402760621,147.6853602823091,0.0,0.0,0.0,0.0,0.0,0.0,0.0,0.0,0.0,0
1615423050.515,0,1615423050,515000105,/vehicle_frd,0,0,32.882983017903264,-117.11779402760621,147.6853602823091,0.0,0.0,0.0,0.0,0.0,0.0,0.0,0.0,0.0,0
1615423050.535,0,1615423050,535000086,/vehicle_frd,0,0,32.882983017903264,-117.11779402760621,147.6853602823091,0.0,0.0,0.0,0.0,0.0,0.0,0.0,0.0,0.0,0
1615423050.555,0,1615423050,555000067,/vehicle_frd,0,0,32.882983017903264,-117.11779402760621,147.6853602823091,0.0,0.0,0.0,0.0,0.0,0.0,0.0,0.0,0.0,0
1615423050.575,0,1615423050,575000048,/vehicle_frd,0,0,32.882983017903264,-117.11779402760621,147.6853602823091,0.0,0.0,0.0,0.0,0.0,0.0,0.0,0.0,0.0,0
1615423050.595,0,1615423050,595000029,/vehicle_frd,0,0,32.882983017903264,-117.11779402760621,147.6853602823091,0.0,0.0,0.0,0.0,0.0,0.0,0.0,0.0,0.0,0
1615423050.615,0,1615423050,615000010,/vehicle_frd,0,0,32.882983017903264,-117.11779402760621,147.6853602823091,0.0,0.0,0.0,0.0,0.0,0.0,0.0,0.0,0.0,0
1615423050.635,0,1615423050,634999990,/vehicle_frd,0,0,32.882983017903264,-117.11779402760621,147.6853602823091,0.0,0.0,0.0,0.0,0.0,0.0,0.0,0.0,0.0,0
1615423050.655,0,1615423050,654999971,/vehicle_frd,0,0,32.88298301790237,-117.11779402760612,147.68536018230907,0.0,0.0,0.0,0.0,0.0,0.0,0.0,0.0,0.0,0
1615423050.675,0,1615423050,674999952,/vehicle_frd,0,0,32.88298301790237,-117.11779402760612,147.68536018230907,0.0,0.0,0.0,0.0,0.0,0.0,0.0,0.0,0.0,0
1615423050.695,0,1615423050,694999933,/vehicle_frd,0,0,32.88298301790237,-117.11779402760612,147.68536018230907,0.0,0.0,0.0,0.0,0.0,0.0,0.0,0.0,0.0,0
1615423050.715,0,1615423050,714999914,/vehicle_frd,0,0,32.88298301790237,-117.11779402760612,147.68536018230907,0.0,0.0,0.0,0.0,0.0,0.0,0.0,0.0,0.0,0
1615423050.735,0,1615423050,734999895,/vehicle_frd,0,0,32.88298301790237,-117.11779402760612,147.68536018230907,0.0,0.0,0.0,0.0,0.0,0.0,0.0,0.0,0.0,0
1615423050.755,0,1615423050,755000114,/vehicle_frd,0,0,32.88298301790237,-117.11779402760612,147.68536018230907,0.0,0.0,0.0,0.0,0.0,0.0,0.0,0.0,0.0,0
1615423050.775,0,1615423050,775000095,/vehicle_frd,0,0,32.88298301790237,-117.11779402760612,147.68536018230907,0.0,0.0,0.0,0.0,0.0,0.0,0.0,0.0,0.0,0
1615423050.795,0,1615423050,795000076,/vehicle_frd,0,0,32.88298301790237,-117.11779402760612,147.68536018230907,0.0,0.0,0.0,0.0,0.0,0.0,0.0,0.0,0.0,0
1615423050.815,0,1615423050,815000057,/vehicle_frd,0,0,32.88298301790237,-117.11779402760612,147.68536018230907,0.0,0.0,0.0,0.0,0.0,0.0,0.0,0.0,0.0,0
1615423050.835,0,1615423050,835000038,/vehicle_frd,0,0,32.88298301790237,-117.11779402760612,147.68536018230907,0.0,0.0,0.0,0.0,0.0,0.0,0.0,0.0,0.0,0
1615423050.855,0,1615423050,855000019,/vehicle_frd,0,0,32.88298301790147,-117.11779402760602,147.6853600823091,0.0,0.0,0.0,0.0,0.0,0.0,0.0,0.0,0.0,0
1615423050.875,0,1615423050,875000000,/vehicle_frd,0,0,32.88298301790147,-117.11779402760602,147.6853600823091,0.0,0.0,0.0,0.0,0.0,0.0,0.0,0.0,0.0,0
1615423050.895,0,1615423050,894999981,/vehicle_frd,0,0,32.88298301790147,-117.11779402760602,147.6853600823091,0.0,0.0,0.0,0.0,0.0,0.0,0.0,0.0,0.0,0
1615423050.915,0,1615423050,914999962,/vehicle_frd,0,0,32.88298301790147,-117.11779402760602,147.6853600823091,0.0,0.0,0.0,0.0,0.0,0.0,0.0,0.0,0.0,0
1615423050.935,0,1615423050,934999943,/vehicle_frd,0,0,32.88298301790147,-117.11779402760602,147.6853600823091,0.0,0.0,0.0,0.0,0.0,0.0,0.0,0.0,0.0,0
1615423050.955,0,1615423050,954999924,/vehicle_frd,0,0,32.88298301790147,-117.11779402760602,147.6853600823091,0.0,0.0,0.0,0.0,0.0,0.0,0.0,0.0,0.0,0
1615423050.975,0,1615423050,974999905,/vehicle_frd,0,0,32.88298301790147,-117.11779402760602,147.6853600823091,0.0,0.0,0.0,0.0,0.0,0.0,0.0,0.0,0.0,0
1615423050.995,0,1615423050,994999886,/vehicle_frd,0,0,32.88298301790147,-117.11779402760602,147.6853600823091,0.0,0.0,0.0,0.0,0.0,0.0,0.0,0.0,0.0,0
1615423051.015,0,1615423051,15000105,/vehicle_frd,0,0,32.88298301790147,-117.11779402760602,147.6853600823091,0.0,0.0,0.0,0.0,0.0,0.0,0.0,0.0,0.0,0
1615423051.035,0,1615423051,35000086,/vehicle_frd,0,0,32.88298301790147,-117.11779402760602,147.6853600823091,0.0,0.0,0.0,0.0,0.0,0.0,0.0,0.0,0.0,0
1615423051.055,0,1615423051,55000067,/vehicle_frd,0,0,32.88298301790147,-117.11779402760602,147.6853600823091,0.0,0.0,0.0,0.0,0.0,0.0,0.0,0.0,0.0,0
1615423051.075,0,1615423051,75000048,/vehicle_frd,0,0,32.88298301790058,-117.11779402760592,147.68535998230908,0.0,0.0,0.0,0.0,0.0,0.0,0.0,0.0,0.0,0
1615423051.095,0,1615423051,95000029,/vehicle_frd,0,0,32.88298301790058,-117.11779402760592,147.68535998230908,0.0,0.0,0.0,0.0,0.0,0.0,0.0,0.0,0.0,0
1615423051.115,0,1615423051,115000010,/vehicle_frd,0,0,32.88298301790058,-117.11779402760592,147.68535998230908,0.0,0.0,0.0,0.0,0.0,0.0,0.0,0.0,0.0,0
1615423051.135,0,1615423051,134999990,/vehicle_frd,0,0,32.88298301790058,-117.11779402760592,147.68535998230908,0.0,0.0,0.0,0.0,0.0,0.0,0.0,0.0,0.0,0
1615423051.155,0,1615423051,154999971,/vehicle_frd,0,0,32.88298301790058,-117.11779402760592,147.68535998230908,0.0,0.0,0.0,0.0,0.0,0.0,0.0,0.0,0.0,0
1615423051.175,0,1615423051,174999952,/vehicle_frd,0,0,32.88298301790058,-117.11779402760592,147.68535998230908,0.0,0.0,0.0,0.0,0.0,0.0,0.0,0.0,0.0,0
1615423051.195,0,1615423051,194999933,/vehicle_frd,0,0,32.88298301790058,-117.11779402760592,147.68535998230908,0.0,0.0,0.0,0.0,0.0,0.0,0.0,0.0,0.0,0
1615423051.215,0,1615423051,214999914,/vehicle_frd,0,0,32.88298301790058,-117.11779402760592,147.68535998230908,0.0,0.0,0.0,0.0,0.0,0.0,0.0,0.0,0.0,0
1615423051.235,0,1615423051,234999895,/vehicle_frd,0,0,32.88298301790058,-117.11779402760592,147.68535998230908,0.0,0.0,0.0,0.0,0.0,0.0,0.0,0.0,0.0,0
1615423051.255,0,1615423051,255000114,/vehicle_frd,0,0,32.88298301789967,-117.11779402760588,147.6853598823091,0.0,0.0,0.0,0.0,0.0,0.0,0.0,0.0,0.0,0
1615423051.275,0,1615423051,275000095,/vehicle_frd,0,0,32.88298301789967,-117.11779402760588,147.6853598823091,0.0,0.0,0.0,0.0,0.0,0.0,0.0,0.0,0.0,0
1615423051.295,0,1615423051,295000076,/vehicle_frd,0,0,32.88298301789967,-117.11779402760588,147.6853598823091,0.0,0.0,0.0,0.0,0.0,0.0,0.0,0.0,0.0,0
1615423051.315,0,1615423051,315000057,/vehicle_frd,0,0,32.88298301789967,-117.11779402760588,147.6853598823091,0.0,0.0,0.0,0.0,0.0,0.0,0.0,0.0,0.0,0
1615423051.335,0,1615423051,335000038,/vehicle_frd,0,0,32.88298301789967,-117.11779402760588,147.6853598823091,0.0,0.0,0.0,0.0,0.0,0.0,0.0,0.0,0.0,0
1615423051.355,0,1615423051,355000019,/vehicle_frd,0,0,32.88298301789967,-117.11779402760588,147.6853598823091,0.0,0.0,0.0,0.0,0.0,0.0,0.0,0.0,0.0,0
1615423051.375,0,1615423051,375000000,/vehicle_frd,0,0,32.88298301789967,-117.11779402760588,147.6853598823091,0.0,0.0,0.0,0.0,0.0,0.0,0.0,0.0,0.0,0
1615423051.395,0,1615423051,394999981,/vehicle_frd,0,0,32.88298301789967,-117.11779402760588,147.6853598823091,0.0,0.0,0.0,0.0,0.0,0.0,0.0,0.0,0.0,0
1615423051.415,0,1615423051,414999962,/vehicle_frd,0,0,32.88298301789967,-117.11779402760588,147.6853598823091,0.0,0.0,0.0,0.0,0.0,0.0,0.0,0.0,0.0,0
1615423051.435,0,1615423051,434999943,/vehicle_frd,0,0,32.88298301789967,-117.11779402760588,147.6853598823091,0.0,0.0,0.0,0.0,0.0,0.0,0.0,0.0,0.0,0
1615423051.455,0,1615423051,454999924,/vehicle_frd,0,0,32.88298301789967,-117.11779402760588,147.6853598823091,0.0,0.0,0.0,0.0,0.0,0.0,0.0,0.0,0.0,0
1615423051.475,0,1615423051,474999905,/vehicle_frd,0,0,32.88298301789877,-117.11779402760583,147.6853597823091,0.0,0.0,0.0,0.0,0.0,0.0,0.0,0.0,0.0,0
1615423051.495,0,1615423051,494999886,/vehicle_frd,0,0,32.88298301789877,-117.11779402760583,147.6853597823091,0.0,0.0,0.0,0.0,0.0,0.0,0.0,0.0,0.0,0
1615423051.515,0,1615423051,515000105,/vehicle_frd,0,0,32.88298301789877,-117.11779402760583,147.6853597823091,0.0,0.0,0.0,0.0,0.0,0.0,0.0,0.0,0.0,0
1615423051.535,0,1615423051,535000086,/vehicle_frd,0,0,32.88298301789877,-117.11779402760583,147.6853597823091,0.0,0.0,0.0,0.0,0.0,0.0,0.0,0.0,0.0,0
1615423051.555,0,1615423051,555000067,/vehicle_frd,0,0,32.88298301789877,-117.11779402760583,147.6853597823091,0.0,0.0,0.0,0.0,0.0,0.0,0.0,0.0,0.0,0
1615423051.575,0,1615423051,575000048,/vehicle_frd,0,0,32.88298301789877,-117.11779402760583,147.6853597823091,0.0,0.0,0.0,0.0,0.0,0.0,0.0,0.0,0.0,0
1615423051.595,0,1615423051,595000029,/vehicle_frd,0,0,32.88298301789877,-117.11779402760583,147.6853597823091,0.0,0.0,0.0,0.0,0.0,0.0,0.0,0.0,0.0,0
1615423051.615,0,1615423051,615000010,/vehicle_frd,0,0,32.88298301789877,-117.11779402760583,147.6853597823091,0.0,0.0,0.0,0.0,0.0,0.0,0.0,0.0,0.0,0
1615423051.635,0,1615423051,634999990,/vehicle_frd,0,0,32.88298301789877,-117.11779402760583,147.6853597823091,0.0,0.0,0.0,0.0,0.0,0.0,0.0,0.0,0.0,0
1615423051.655,0,1615423051,654999971,/vehicle_frd,0,0,32.88298301789787,-117.11779402760578,147.68535968230907,0.0,0.0,0.0,0.0,0.0,0.0,0.0,0.0,0.0,0
1615423051.675,0,1615423051,674999952,/vehicle_frd,0,0,32.88298301789787,-117.11779402760578,147.68535968230907,0.0,0.0,0.0,0.0,0.0,0.0,0.0,0.0,0.0,0
1615423051.695,0,1615423051,694999933,/vehicle_frd,0,0,32.88298301789787,-117.11779402760578,147.68535968230907,0.0,0.0,0.0,0.0,0.0,0.0,0.0,0.0,0.0,0
1615423051.715,0,1615423051,714999914,/vehicle_frd,0,0,32.88298301789787,-117.11779402760578,147.68535968230907,0.0,0.0,0.0,0.0,0.0,0.0,0.0,0.0,0.0,0
1615423051.735,0,1615423051,734999895,/vehicle_frd,0,0,32.88298301789787,-117.11779402760578,147.68535968230907,0.0,0.0,0.0,0.0,0.0,0.0,0.0,0.0,0.0,0
1615423051.755,0,1615423051,755000114,/vehicle_frd,0,0,32.88298301789787,-117.11779402760578,147.68535968230907,0.0,0.0,0.0,0.0,0.0,0.0,0.0,0.0,0.0,0
1615423051.775,0,1615423051,775000095,/vehicle_frd,0,0,32.88298301789787,-117.11779402760578,147.68535968230907,0.0,0.0,0.0,0.0,0.0,0.0,0.0,0.0,0.0,0
1615423051.795,0,1615423051,795000076,/vehicle_frd,0,0,32.88298301789787,-117.11779402760578,147.68535968230907,0.0,0.0,0.0,0.0,0.0,0.0,0.0,0.0,0.0,0
1615423051.815,0,1615423051,815000057,/vehicle_frd,0,0,32.88298301789787,-117.11779402760578,147.68535968230907,0.0,0.0,0.0,0.0,0.0,0.0,0.0,0.0,0.0,0
1615423051.835,0,1615423051,835000038,/vehicle_frd,0,0,32.88298301789787,-117.11779402760578,147.68535968230907,0.0,0.0,0.0,0.0,0.0,0.0,0.0,0.0,0.0,0
1615423051.855,0,1615423051,855000019,/vehicle_frd,0,0,32.882983017896976,-117.11779402760567,147.6853595823091,0.0,0.0,0.0,0.0,0.0,0.0,0.0,0.0,0.0,0
1615423051.875,0,1615423051,875000000,/vehicle_frd,0,0,32.882983017896976,-117.11779402760567,147.6853595823091,0.0,0.0,0.0,0.0,0.0,0.0,0.0,0.0,0.0,0
1615423051.895,0,1615423051,894999981,/vehicle_frd,0,0,32.882983017896976,-117.11779402760567,147.6853595823091,0.0,0.0,0.0,0.0,0.0,0.0,0.0,0.0,0.0,0
1615423051.915,0,1615423051,914999962,/vehicle_frd,0,0,32.882983017896976,-117.11779402760567,147.6853595823091,0.0,0.0,0.0,0.0,0.0,0.0,0.0,0.0,0.0,0
1615423051.935,0,1615423051,934999943,/vehicle_frd,0,0,32.882983017896976,-117.11779402760567,147.6853595823091,0.0,0.0,0.0,0.0,0.0,0.0,0.0,0.0,0.0,0
1615423051.955,0,1615423051,954999924,/vehicle_frd,0,0,32.882983017896976,-117.11779402760567,147.6853595823091,0.0,0.0,0.0,0.0,0.0,0.0,0.0,0.0,0.0,0
1615423051.975,0,1615423051,974999905,/vehicle_frd,0,0,32.882983017896976,-117.11779402760567,147.6853595823091,0.0,0.0,0.0,0.0,0.0,0.0,0.0,0.0,0.0,0
1615423051.995,0,1615423051,994999886,/vehicle_frd,0,0,32.882983017896976,-117.11779402760567,147.6853595823091,0.0,0.0,0.0,0.0,0.0,0.0,0.0,0.0,0.0,0
1615423052.015,0,1615423052,15000105,/vehicle_frd,0,0,32.882983017896976,-117.11779402760567,147.6853595823091,0.0,0.0,0.0,0.0,0.0,0.0,0.0,0.0,0.0,0
1615423052.035,0,1615423052,35000086,/vehicle_frd,0,0,32.882983017896976,-117.11779402760567,147.6853595823091,0.0,0.0,0.0,0.0,0.0,0.0,0.0,0.0,0.0,0
1615423052.055,0,1615423052,55000067,/vehicle_frd,0,0,32.882983017896976,-117.11779402760567,147.6853595823091,0.0,0.0,0.0,0.0,0.0,0.0,0.0,0.0,0.0,0
1615423052.075,0,1615423052,75000048,/vehicle_frd,0,0,32.88298301789607,-117.11779402760556,147.68535948230908,0.0,0.0,0.0,0.0,0.0,0.0,0.0,0.0,0.0,0
1615423052.095,0,1615423052,95000029,/vehicle_frd,0,0,32.88298301789607,-117.11779402760556,147.68535948230908,0.0,0.0,0.0,0.0,0.0,0.0,0.0,0.0,0.0,0
1615423052.115,0,1615423052,115000010,/vehicle_frd,0,0,32.88298301789607,-117.11779402760556,147.68535948230908,0.0,0.0,0.0,0.0,0.0,0.0,0.0,0.0,0.0,0
1615423052.135,0,1615423052,134999990,/vehicle_frd,0,0,32.88298301789607,-117.11779402760556,147.68535948230908,0.0,0.0,0.0,0.0,0.0,0.0,0.0,0.0,0.0,0
1615423052.155,0,1615423052,154999971,/vehicle_frd,0,0,32.88298301789607,-117.11779402760556,147.68535948230908,0.0,0.0,0.0,0.0,0.0,0.0,0.0,0.0,0.0,0
1615423052.175,0,1615423052,174999952,/vehicle_frd,0,0,32.88298301789607,-117.11779402760556,147.68535948230908,0.0,0.0,0.0,0.0,0.0,0.0,0.0,0.0,0.0,0
1615423052.195,0,1615423052,194999933,/vehicle_frd,0,0,32.88298301789607,-117.11779402760556,147.68535948230908,0.0,0.0,0.0,0.0,0.0,0.0,0.0,0.0,0.0,0
1615423052.215,0,1615423052,214999914,/vehicle_frd,0,0,32.88298301789607,-117.11779402760556,147.68535948230908,0.0,0.0,0.0,0.0,0.0,0.0,0.0,0.0,0.0,0
1615423052.235,0,1615423052,234999895,/vehicle_frd,0,0,32.88298301789607,-117.11779402760556,147.68535948230908,0.0,0.0,0.0,0.0,0.0,0.0,0.0,0.0,0.0,0
1615423052.255,0,1615423052,255000114,/vehicle_frd,0,0,32.88298301789607,-117.11779402760556,147.68535948230908,0.0,0.0,0.0,0.0,0.0,0.0,0.0,0.0,0.0,0
1615423052.275,0,1615423052,275000095,/vehicle_frd,0,0,32.88298301789518,-117.11779402760544,147.68535938230906,0.0,0.0,0.0,0.0,0.0,0.0,0.0,0.0,0.0,0
1615423052.295,0,1615423052,295000076,/vehicle_frd,0,0,32.88298301789518,-117.11779402760544,147.68535938230906,0.0,0.0,0.0,0.0,0.0,0.0,0.0,0.0,0.0,0
1615423052.315,0,1615423052,315000057,/vehicle_frd,0,0,32.88298301789518,-117.11779402760544,147.68535938230906,0.0,0.0,0.0,0.0,0.0,0.0,0.0,0.0,0.0,0
1615423052.335,0,1615423052,335000038,/vehicle_frd,0,0,32.88298301789518,-117.11779402760544,147.68535938230906,0.0,0.0,0.0,0.0,0.0,0.0,0.0,0.0,0.0,0
1615423052.355,0,1615423052,355000019,/vehicle_frd,0,0,32.88298301789518,-117.11779402760544,147.68535938230906,0.0,0.0,0.0,0.0,0.0,0.0,0.0,0.0,0.0,0
1615423052.375,0,1615423052,375000000,/vehicle_frd,0,0,32.88298301789518,-117.11779402760544,147.68535938230906,0.0,0.0,0.0,0.0,0.0,0.0,0.0,0.0,0.0,0
1615423052.395,0,1615423052,394999981,/vehicle_frd,0,0,32.88298301789518,-117.11779402760544,147.68535938230906,0.0,0.0,0.0,0.0,0.0,0.0,0.0,0.0,0.0,0
1615423052.415,0,1615423052,414999962,/vehicle_frd,0,0,32.88298301789518,-117.11779402760544,147.68535938230906,0.0,0.0,0.0,0.0,0.0,0.0,0.0,0.0,0.0,0
1615423052.435,0,1615423052,434999943,/vehicle_frd,0,0,32.88298301789518,-117.11779402760544,147.68535938230906,0.0,0.0,0.0,0.0,0.0,0.0,0.0,0.0,0.0,0
1615423052.455,0,1615423052,454999924,/vehicle_frd,0,0,32.88298301789429,-117.11779402760529,147.6853592823091,0.0,0.0,0.0,0.0,0.0,0.0,0.0,0.0,0.0,0
1615423052.475,0,1615423052,474999905,/vehicle_frd,0,0,32.88298301789429,-117.11779402760529,147.6853592823091,0.0,0.0,0.0,0.0,0.0,0.0,0.0,0.0,0.0,0
1615423052.495,0,1615423052,494999886,/vehicle_frd,0,0,32.88298301789429,-117.11779402760529,147.6853592823091,0.0,0.0,0.0,0.0,0.0,0.0,0.0,0.0,0.0,0
1615423052.515,0,1615423052,515000105,/vehicle_frd,0,0,32.88298301789429,-117.11779402760529,147.6853592823091,0.0,0.0,0.0,0.0,0.0,0.0,0.0,0.0,0.0,0
1615423052.535,0,1615423052,535000086,/vehicle_frd,0,0,32.88298301789429,-117.11779402760529,147.6853592823091,0.0,0.0,0.0,0.0,0.0,0.0,0.0,0.0,0.0,0
1615423052.555,0,1615423052,555000067,/vehicle_frd,0,0,32.88298301789429,-117.11779402760529,147.6853592823091,0.0,0.0,0.0,0.0,0.0,0.0,0.0,0.0,0.0,0
1615423052.575,0,1615423052,575000048,/vehicle_frd,0,0,32.88298301789429,-117.11779402760529,147.6853592823091,0.0,0.0,0.0,0.0,0.0,0.0,0.0,0.0,0.0,0
1615423052.595,0,1615423052,595000029,/vehicle_frd,0,0,32.88298301789429,-117.11779402760529,147.6853592823091,0.0,0.0,0.0,0.0,0.0,0.0,0.0,0.0,0.0,0
1615423052.615,0,1615423052,615000010,/vehicle_frd,0,0,32.88298301789429,-117.11779402760529,147.6853592823091,0.0,0.0,0.0,0.0,0.0,0.0,0.0,0.0,0.0,0
1615423052.635,0,1615423052,634999990,/vehicle_frd,0,0,32.88298301789429,-117.11779402760529,147.6853592823091,0.0,0.0,0.0,0.0,0.0,0.0,0.0,0.0,0.0,0
1615423052.655,0,1615423052,654999971,/vehicle_frd,0,0,32.882983017893395,-117.11779402760514,147.68535918230907,0.0,0.0,0.0,0.0,0.0,0.0,0.0,0.0,0.0,0
1615423052.675,0,1615423052,674999952,/vehicle_frd,0,0,32.882983017893395,-117.11779402760514,147.68535918230907,0.0,0.0,0.0,0.0,0.0,0.0,0.0,0.0,0.0,0
1615423052.695,0,1615423052,694999933,/vehicle_frd,0,0,32.882983017893395,-117.11779402760514,147.68535918230907,0.0,0.0,0.0,0.0,0.0,0.0,0.0,0.0,0.0,0
1615423052.715,0,1615423052,714999914,/vehicle_frd,0,0,32.882983017893395,-117.11779402760514,147.68535918230907,0.0,0.0,0.0,0.0,0.0,0.0,0.0,0.0,0.0,0
1615423052.735,0,1615423052,734999895,/vehicle_frd,0,0,32.882983017893395,-117.11779402760514,147.68535918230907,0.0,0.0,0.0,0.0,0.0,0.0,0.0,0.0,0.0,0
1615423052.755,0,1615423052,755000114,/vehicle_frd,0,0,32.882983017893395,-117.11779402760514,147.68535918230907,0.0,0.0,0.0,0.0,0.0,0.0,0.0,0.0,0.0,0
1615423052.775,0,1615423052,775000095,/vehicle_frd,0,0,32.882983017893395,-117.11779402760514,147.68535918230907,0.0,0.0,0.0,0.0,0.0,0.0,0.0,0.0,0.0,0
1615423052.795,0,1615423052,795000076,/vehicle_frd,0,0,32.882983017893395,-117.11779402760514,147.68535918230907,0.0,0.0,0.0,0.0,0.0,0.0,0.0,0.0,0.0,0
1615423052.815,0,1615423052,815000057,/vehicle_frd,0,0,32.882983017893395,-117.11779402760514,147.68535918230907,0.0,0.0,0.0,0.0,0.0,0.0,0.0,0.0,0.0,0
1615423052.835,0,1615423052,835000038,/vehicle_frd,0,0,32.882983017893395,-117.11779402760514,147.68535918230907,0.0,0.0,0.0,0.0,0.0,0.0,0.0,0.0,0.0,0
1615423052.855,0,1615423052,855000019,/vehicle_frd,0,0,32.8829830178925,-117.11779402760499,147.6853590823091,0.0,0.0,0.0,0.0,0.0,0.0,0.0,0.0,0.0,0
1615423052.875,0,1615423052,875000000,/vehicle_frd,0,0,32.8829830178925,-117.11779402760499,147.6853590823091,0.0,0.0,0.0,0.0,0.0,0.0,0.0,0.0,0.0,0
1615423052.895,0,1615423052,894999981,/vehicle_frd,0,0,32.8829830178925,-117.11779402760499,147.6853590823091,0.0,0.0,0.0,0.0,0.0,0.0,0.0,0.0,0.0,0
1615423052.915,0,1615423052,914999962,/vehicle_frd,0,0,32.8829830178925,-117.11779402760499,147.6853590823091,0.0,0.0,0.0,0.0,0.0,0.0,0.0,0.0,0.0,0
1615423052.935,0,1615423052,934999943,/vehicle_frd,0,0,32.8829830178925,-117.11779402760499,147.6853590823091,0.0,0.0,0.0,0.0,0.0,0.0,0.0,0.0,0.0,0
1615423052.955,0,1615423052,954999924,/vehicle_frd,0,0,32.8829830178925,-117.11779402760499,147.6853590823091,0.0,0.0,0.0,0.0,0.0,0.0,0.0,0.0,0.0,0
1615423052.975,0,1615423052,974999905,/vehicle_frd,0,0,32.8829830178925,-117.11779402760499,147.6853590823091,0.0,0.0,0.0,0.0,0.0,0.0,0.0,0.0,0.0,0
1615423052.995,0,1615423052,994999886,/vehicle_frd,0,0,32.8829830178925,-117.11779402760499,147.6853590823091,0.0,0.0,0.0,0.0,0.0,0.0,0.0,0.0,0.0,0
1615423053.015,0,1615423053,15000105,/vehicle_frd,0,0,32.8829830178925,-117.11779402760499,147.6853590823091,0.0,0.0,0.0,0.0,0.0,0.0,0.0,0.0,0.0,0
1615423053.035,0,1615423053,35000086,/vehicle_frd,0,0,32.8829830178925,-117.11779402760499,147.6853590823091,0.0,0.0,0.0,0.0,0.0,0.0,0.0,0.0,0.0,0
1615423053.055,0,1615423053,55000067,/vehicle_frd,0,0,32.882983017891604,-117.11779402760502,147.68535898230908,0.0,0.0,0.0,0.0,0.0,0.0,0.0,0.0,0.0,0
1615423053.075,0,1615423053,75000048,/vehicle_frd,0,0,32.882983017891604,-117.11779402760502,147.68535898230908,0.0,0.0,0.0,0.0,0.0,0.0,0.0,0.0,0.0,0
1615423053.095,0,1615423053,95000029,/vehicle_frd,0,0,32.882983017891604,-117.11779402760502,147.68535898230908,0.0,0.0,0.0,0.0,0.0,0.0,0.0,0.0,0.0,0
1615423053.115,0,1615423053,115000010,/vehicle_frd,0,0,32.882983017891604,-117.11779402760502,147.68535898230908,0.0,0.0,0.0,0.0,0.0,0.0,0.0,0.0,0.0,0
1615423053.135,0,1615423053,134999990,/vehicle_frd,0,0,32.882983017891604,-117.11779402760502,147.68535898230908,0.0,0.0,0.0,0.0,0.0,0.0,0.0,0.0,0.0,0
1615423053.155,0,1615423053,154999971,/vehicle_frd,0,0,32.882983017891604,-117.11779402760502,147.68535898230908,0.0,0.0,0.0,0.0,0.0,0.0,0.0,0.0,0.0,0
1615423053.175,0,1615423053,174999952,/vehicle_frd,0,0,32.882983017891604,-117.11779402760502,147.68535898230908,0.0,0.0,0.0,0.0,0.0,0.0,0.0,0.0,0.0,0
1615423053.195,0,1615423053,194999933,/vehicle_frd,0,0,32.882983017891604,-117.11779402760502,147.68535898230908,0.0,0.0,0.0,0.0,0.0,0.0,0.0,0.0,0.0,0
1615423053.215,0,1615423053,214999914,/vehicle_frd,0,0,32.882983017891604,-117.11779402760502,147.68535898230908,0.0,0.0,0.0,0.0,0.0,0.0,0.0,0.0,0.0,0
1615423053.235,0,1615423053,234999895,/vehicle_frd,0,0,32.882983017891604,-117.11779402760502,147.68535898230908,0.0,0.0,0.0,0.0,0.0,0.0,0.0,0.0,0.0,0
1615423053.255,0,1615423053,255000114,/vehicle_frd,0,0,32.8829830178907,-117.11779402760503,147.6853588823091,0.0,0.0,0.0,0.0,0.0,0.0,0.0,0.0,0.0,0
1615423053.275,0,1615423053,275000095,/vehicle_frd,0,0,32.8829830178907,-117.11779402760503,147.6853588823091,0.0,0.0,0.0,0.0,0.0,0.0,0.0,0.0,0.0,0
1615423053.295,0,1615423053,295000076,/vehicle_frd,0,0,32.8829830178907,-117.11779402760503,147.6853588823091,0.0,0.0,0.0,0.0,0.0,0.0,0.0,0.0,0.0,0
1615423053.315,0,1615423053,315000057,/vehicle_frd,0,0,32.8829830178907,-117.11779402760503,147.6853588823091,0.0,0.0,0.0,0.0,0.0,0.0,0.0,0.0,0.0,0
1615423053.335,0,1615423053,335000038,/vehicle_frd,0,0,32.8829830178907,-117.11779402760503,147.6853588823091,0.0,0.0,0.0,0.0,0.0,0.0,0.0,0.0,0.0,0
1615423053.355,0,1615423053,355000019,/vehicle_frd,0,0,32.8829830178907,-117.11779402760503,147.6853588823091,0.0,0.0,0.0,0.0,0.0,0.0,0.0,0.0,0.0,0
1615423053.375,0,1615423053,375000000,/vehicle_frd,0,0,32.8829830178907,-117.11779402760503,147.6853588823091,0.0,0.0,0.0,0.0,0.0,0.0,0.0,0.0,0.0,0
1615423053.395,0,1615423053,394999981,/vehicle_frd,0,0,32.8829830178907,-117.11779402760503,147.6853588823091,0.0,0.0,0.0,0.0,0.0,0.0,0.0,0.0,0.0,0
1615423053.415,0,1615423053,414999962,/vehicle_frd,0,0,32.8829830178907,-117.11779402760503,147.6853588823091,0.0,0.0,0.0,0.0,0.0,0.0,0.0,0.0,0.0,0
1615423053.435,0,1615423053,434999943,/vehicle_frd,0,0,32.8829830178907,-117.11779402760503,147.6853588823091,0.0,0.0,0.0,0.0,0.0,0.0,0.0,0.0,0.0,0
1615423053.455,0,1615423053,454999924,/vehicle_frd,0,0,32.8829830178898,-117.11779402760506,147.6853587823091,0.0,0.0,0.0,0.0,0.0,0.0,0.0,0.0,0.0,0
1615423053.475,0,1615423053,474999905,/vehicle_frd,0,0,32.8829830178898,-117.11779402760506,147.6853587823091,0.0,0.0,0.0,0.0,0.0,0.0,0.0,0.0,0.0,0
1615423053.495,0,1615423053,494999886,/vehicle_frd,0,0,32.8829830178898,-117.11779402760506,147.6853587823091,0.0,0.0,0.0,0.0,0.0,0.0,0.0,0.0,0.0,0
1615423053.515,0,1615423053,515000105,/vehicle_frd,0,0,32.8829830178898,-117.11779402760506,147.6853587823091,0.0,0.0,0.0,0.0,0.0,0.0,0.0,0.0,0.0,0
1615423053.535,0,1615423053,535000086,/vehicle_frd,0,0,32.8829830178898,-117.11779402760506,147.6853587823091,0.0,0.0,0.0,0.0,0.0,0.0,0.0,0.0,0.0,0
1615423053.555,0,1615423053,555000067,/vehicle_frd,0,0,32.8829830178898,-117.11779402760506,147.6853587823091,0.0,0.0,0.0,0.0,0.0,0.0,0.0,0.0,0.0,0
1615423053.575,0,1615423053,575000048,/vehicle_frd,0,0,32.8829830178898,-117.11779402760506,147.6853587823091,0.0,0.0,0.0,0.0,0.0,0.0,0.0,0.0,0.0,0
1615423053.595,0,1615423053,595000029,/vehicle_frd,0,0,32.8829830178898,-117.11779402760506,147.6853587823091,0.0,0.0,0.0,0.0,0.0,0.0,0.0,0.0,0.0,0
1615423053.615,0,1615423053,615000010,/vehicle_frd,0,0,32.8829830178898,-117.11779402760506,147.6853587823091,0.0,0.0,0.0,0.0,0.0,0.0,0.0,0.0,0.0,0
1615423053.635,0,1615423053,634999990,/vehicle_frd,0,0,32.8829830178898,-117.11779402760506,147.6853587823091,0.0,0.0,0.0,0.0,0.0,0.0,0.0,0.0,0.0,0
1615423053.655,0,1615423053,654999971,/vehicle_frd,0,0,32.882983017888904,-117.11779402760494,147.68535868230907,0.0,0.0,0.0,0.0,0.0,0.0,0.0,0.0,0.0,0
1615423053.675,0,1615423053,674999952,/vehicle_frd,0,0,32.882983017888904,-117.11779402760494,147.68535868230907,0.0,0.0,0.0,0.0,0.0,0.0,0.0,0.0,0.0,0
1615423053.695,0,1615423053,694999933,/vehicle_frd,0,0,32.882983017888904,-117.11779402760494,147.68535868230907,0.0,0.0,0.0,0.0,0.0,0.0,0.0,0.0,0.0,0
1615423053.715,0,1615423053,714999914,/vehicle_frd,0,0,32.882983017888904,-117.11779402760494,147.68535868230907,0.0,0.0,0.0,0.0,0.0,0.0,0.0,0.0,0.0,0
1615423053.735,0,1615423053,734999895,/vehicle_frd,0,0,32.882983017888904,-117.11779402760494,147.68535868230907,0.0,0.0,0.0,0.0,0.0,0.0,0.0,0.0,0.0,0
1615423053.755,0,1615423053,755000114,/vehicle_frd,0,0,32.882983017888904,-117.11779402760494,147.68535868230907,0.0,0.0,0.0,0.0,0.0,0.0,0.0,0.0,0.0,0
1615423053.775,0,1615423053,775000095,/vehicle_frd,0,0,32.882983017888904,-117.11779402760494,147.68535868230907,0.0,0.0,0.0,0.0,0.0,0.0,0.0,0.0,0.0,0
1615423053.795,0,1615423053,795000076,/vehicle_frd,0,0,32.882983017888904,-117.11779402760494,147.68535868230907,0.0,0.0,0.0,0.0,0.0,0.0,0.0,0.0,0.0,0
1615423053.815,0,1615423053,815000057,/vehicle_frd,0,0,32.882983017888904,-117.11779402760494,147.68535868230907,0.0,0.0,0.0,0.0,0.0,0.0,0.0,0.0,0.0,0
1615423053.835,0,1615423053,835000038,/vehicle_frd,0,0,32.882983017888904,-117.11779402760494,147.68535868230907,0.0,0.0,0.0,0.0,0.0,0.0,0.0,0.0,0.0,0
1615423053.855,0,1615423053,855000019,/vehicle_frd,0,0,32.882983017888,-117.11779402760482,147.6853585823091,0.0,0.0,0.0,0.0,0.0,0.0,0.0,0.0,0.0,0
1615423053.875,0,1615423053,875000000,/vehicle_frd,0,0,32.882983017888,-117.11779402760482,147.6853585823091,0.0,0.0,0.0,0.0,0.0,0.0,0.0,0.0,0.0,0
1615423053.895,0,1615423053,894999981,/vehicle_frd,0,0,32.882983017888,-117.11779402760482,147.6853585823091,0.0,0.0,0.0,0.0,0.0,0.0,0.0,0.0,0.0,0
1615423053.915,0,1615423053,914999962,/vehicle_frd,0,0,32.882983017888,-117.11779402760482,147.6853585823091,0.0,0.0,0.0,0.0,0.0,0.0,0.0,0.0,0.0,0
1615423053.935,0,1615423053,934999943,/vehicle_frd,0,0,32.882983017888,-117.11779402760482,147.6853585823091,0.0,0.0,0.0,0.0,0.0,0.0,0.0,0.0,0.0,0
1615423053.955,0,1615423053,954999924,/vehicle_frd,0,0,32.882983017888,-117.11779402760482,147.6853585823091,0.0,0.0,0.0,0.0,0.0,0.0,0.0,0.0,0.0,0
1615423053.975,0,1615423053,974999905,/vehicle_frd,0,0,32.882983017888,-117.11779402760482,147.6853585823091,0.0,0.0,0.0,0.0,0.0,0.0,0.0,0.0,0.0,0
1615423053.995,0,1615423053,994999886,/vehicle_frd,0,0,32.882983017888,-117.11779402760482,147.6853585823091,0.0,0.0,0.0,0.0,0.0,0.0,0.0,0.0,0.0,0
1615423054.015,0,1615423054,15000105,/vehicle_frd,0,0,32.882983017888,-117.11779402760482,147.6853585823091,0.0,0.0,0.0,0.0,0.0,0.0,0.0,0.0,0.0,0
1615423054.035,0,1615423054,35000086,/vehicle_frd,0,0,32.882983017888,-117.11779402760482,147.6853585823091,0.0,0.0,0.0,0.0,0.0,0.0,0.0,0.0,0.0,0
1615423054.055,0,1615423054,55000067,/vehicle_frd,0,0,32.882983017888,-117.11779402760482,147.6853585823091,0.0,0.0,0.0,0.0,0.0,0.0,0.0,0.0,0.0,0
1615423054.075,0,1615423054,75000048,/vehicle_frd,0,0,32.88298301788711,-117.11779402760469,147.68535848230908,0.0,0.0,0.0,0.0,0.0,0.0,0.0,0.0,0.0,0
1615423054.095,0,1615423054,95000029,/vehicle_frd,0,0,32.88298301788711,-117.11779402760469,147.68535848230908,0.0,0.0,0.0,0.0,0.0,0.0,0.0,0.0,0.0,0
1615423054.115,0,1615423054,115000010,/vehicle_frd,0,0,32.88298301788711,-117.11779402760469,147.68535848230908,0.0,0.0,0.0,0.0,0.0,0.0,0.0,0.0,0.0,0
1615423054.135,0,1615423054,134999990,/vehicle_frd,0,0,32.88298301788711,-117.11779402760469,147.68535848230908,0.0,0.0,0.0,0.0,0.0,0.0,0.0,0.0,0.0,0
1615423054.155,0,1615423054,154999971,/vehicle_frd,0,0,32.88298301788711,-117.11779402760469,147.68535848230908,0.0,0.0,0.0,0.0,0.0,0.0,0.0,0.0,0.0,0
1615423054.175,0,1615423054,174999952,/vehicle_frd,0,0,32.88298301788711,-117.11779402760469,147.68535848230908,0.0,0.0,0.0,0.0,0.0,0.0,0.0,0.0,0.0,0
1615423054.195,0,1615423054,194999933,/vehicle_frd,0,0,32.88298301788711,-117.11779402760469,147.68535848230908,0.0,0.0,0.0,0.0,0.0,0.0,0.0,0.0,0.0,0
1615423054.215,0,1615423054,214999914,/vehicle_frd,0,0,32.88298301788711,-117.11779402760469,147.68535848230908,0.0,0.0,0.0,0.0,0.0,0.0,0.0,0.0,0.0,0
1615423054.235,0,1615423054,234999895,/vehicle_frd,0,0,32.88298301788711,-117.11779402760469,147.68535848230908,0.0,0.0,0.0,0.0,0.0,0.0,0.0,0.0,0.0,0
1615423054.255,0,1615423054,255000114,/vehicle_frd,0,0,32.882983017886225,-117.11779402760446,147.6853583823091,0.0,0.0,0.0,0.0,0.0,0.0,0.0,0.0,0.0,0
1615423054.275,0,1615423054,275000095,/vehicle_frd,0,0,32.882983017886225,-117.11779402760446,147.6853583823091,0.0,0.0,0.0,0.0,0.0,0.0,0.0,0.0,0.0,0
1615423054.295,0,1615423054,295000076,/vehicle_frd,0,0,32.882983017886225,-117.11779402760446,147.6853583823091,0.0,0.0,0.0,0.0,0.0,0.0,0.0,0.0,0.0,0
1615423054.315,0,1615423054,315000057,/vehicle_frd,0,0,32.882983017886225,-117.11779402760446,147.6853583823091,0.0,0.0,0.0,0.0,0.0,0.0,0.0,0.0,0.0,0
1615423054.335,0,1615423054,335000038,/vehicle_frd,0,0,32.882983017886225,-117.11779402760446,147.6853583823091,0.0,0.0,0.0,0.0,0.0,0.0,0.0,0.0,0.0,0
1615423054.355,0,1615423054,355000019,/vehicle_frd,0,0,32.882983017886225,-117.11779402760446,147.6853583823091,0.0,0.0,0.0,0.0,0.0,0.0,0.0,0.0,0.0,0
1615423054.375,0,1615423054,375000000,/vehicle_frd,0,0,32.882983017886225,-117.11779402760446,147.6853583823091,0.0,0.0,0.0,0.0,0.0,0.0,0.0,0.0,0.0,0
1615423054.395,0,1615423054,394999981,/vehicle_frd,0,0,32.882983017886225,-117.11779402760446,147.6853583823091,0.0,0.0,0.0,0.0,0.0,0.0,0.0,0.0,0.0,0
1615423054.415,0,1615423054,414999962,/vehicle_frd,0,0,32.882983017886225,-117.11779402760446,147.6853583823091,0.0,0.0,0.0,0.0,0.0,0.0,0.0,0.0,0.0,0
1615423054.435,0,1615423054,434999943,/vehicle_frd,0,0,32.882983017885344,-117.11779402760422,147.6853582823091,0.0,0.0,0.0,0.0,0.0,0.0,0.0,0.0,0.0,0
1615423054.455,0,1615423054,454999924,/vehicle_frd,0,0,32.882983017885344,-117.11779402760422,147.6853582823091,0.0,0.0,0.0,0.0,0.0,0.0,0.0,0.0,0.0,0
1615423054.475,0,1615423054,474999905,/vehicle_frd,0,0,32.882983017885344,-117.11779402760422,147.6853582823091,0.0,0.0,0.0,0.0,0.0,0.0,0.0,0.0,0.0,0
1615423054.495,0,1615423054,494999886,/vehicle_frd,0,0,32.882983017885344,-117.11779402760422,147.6853582823091,0.0,0.0,0.0,0.0,0.0,0.0,0.0,0.0,0.0,0
1615423054.515,0,1615423054,515000105,/vehicle_frd,0,0,32.882983017885344,-117.11779402760422,147.6853582823091,0.0,0.0,0.0,0.0,0.0,0.0,0.0,0.0,0.0,0
1615423054.535,0,1615423054,535000086,/vehicle_frd,0,0,32.882983017885344,-117.11779402760422,147.6853582823091,0.0,0.0,0.0,0.0,0.0,0.0,0.0,0.0,0.0,0
1615423054.555,0,1615423054,555000067,/vehicle_frd,0,0,32.882983017885344,-117.11779402760422,147.6853582823091,0.0,0.0,0.0,0.0,0.0,0.0,0.0,0.0,0.0,0
1615423054.575,0,1615423054,575000048,/vehicle_frd,0,0,32.882983017885344,-117.11779402760422,147.6853582823091,0.0,0.0,0.0,0.0,0.0,0.0,0.0,0.0,0.0,0
1615423054.595,0,1615423054,595000029,/vehicle_frd,0,0,32.882983017885344,-117.11779402760422,147.6853582823091,0.0,0.0,0.0,0.0,0.0,0.0,0.0,0.0,0.0,0
1615423054.615,0,1615423054,615000010,/vehicle_frd,0,0,32.882983017885344,-117.11779402760422,147.6853582823091,0.0,0.0,0.0,0.0,0.0,0.0,0.0,0.0,0.0,0
1615423054.635,0,1615423054,634999990,/vehicle_frd,0,0,32.882983017885344,-117.11779402760422,147.6853582823091,0.0,0.0,0.0,0.0,0.0,0.0,0.0,0.0,0.0,0
1615423054.655,0,1615423054,654999971,/vehicle_frd,0,0,32.88298301788447,-117.11779402760399,147.68535818230907,0.0,0.0,0.0,0.0,0.0,0.0,0.0,0.0,0.0,0
1615423054.675,0,1615423054,674999952,/vehicle_frd,0,0,32.88298301788447,-117.11779402760399,147.68535818230907,0.0,0.0,0.0,0.0,0.0,0.0,0.0,0.0,0.0,0
1615423054.695,0,1615423054,694999933,/vehicle_frd,0,0,32.88298301788447,-117.11779402760399,147.68535818230907,0.0,0.0,0.0,0.0,0.0,0.0,0.0,0.0,0.0,0
1615423054.715,0,1615423054,714999914,/vehicle_frd,0,0,32.88298301788447,-117.11779402760399,147.68535818230907,0.0,0.0,0.0,0.0,0.0,0.0,0.0,0.0,0.0,0
1615423054.735,0,1615423054,734999895,/vehicle_frd,0,0,32.88298301788447,-117.11779402760399,147.68535818230907,0.0,0.0,0.0,0.0,0.0,0.0,0.0,0.0,0.0,0
1615423054.755,0,1615423054,755000114,/vehicle_frd,0,0,32.88298301788447,-117.11779402760399,147.68535818230907,0.0,0.0,0.0,0.0,0.0,0.0,0.0,0.0,0.0,0
1615423054.775,0,1615423054,775000095,/vehicle_frd,0,0,32.88298301788447,-117.11779402760399,147.68535818230907,0.0,0.0,0.0,0.0,0.0,0.0,0.0,0.0,0.0,0
1615423054.795,0,1615423054,795000076,/vehicle_frd,0,0,32.88298301788447,-117.11779402760399,147.68535818230907,0.0,0.0,0.0,0.0,0.0,0.0,0.0,0.0,0.0,0
1615423054.815,0,1615423054,815000057,/vehicle_frd,0,0,32.88298301788447,-117.11779402760399,147.68535818230907,0.0,0.0,0.0,0.0,0.0,0.0,0.0,0.0,0.0,0
1615423054.835,0,1615423054,835000038,/vehicle_frd,0,0,32.88298301788447,-117.11779402760399,147.68535818230907,0.0,0.0,0.0,0.0,0.0,0.0,0.0,0.0,0.0,0
1615423054.855,0,1615423054,855000019,/vehicle_frd,0,0,32.882983017883575,-117.1177940276038,147.6853580823091,0.0,0.0,0.0,0.0,0.0,0.0,0.0,0.0,0.0,0
1615423054.875,0,1615423054,875000000,/vehicle_frd,0,0,32.882983017883575,-117.1177940276038,147.6853580823091,0.0,0.0,0.0,0.0,0.0,0.0,0.0,0.0,0.0,0
1615423054.895,0,1615423054,894999981,/vehicle_frd,0,0,32.882983017883575,-117.1177940276038,147.6853580823091,0.0,0.0,0.0,0.0,0.0,0.0,0.0,0.0,0.0,0
1615423054.915,0,1615423054,914999962,/vehicle_frd,0,0,32.882983017883575,-117.1177940276038,147.6853580823091,0.0,0.0,0.0,0.0,0.0,0.0,0.0,0.0,0.0,0
