Time,header.seq,header.stamp.secs,header.stamp.nsecs,header.frame_id,status.status,status.service,latitude,longitude,altitude,position_covariance_0,position_covariance_1,position_covariance_2,position_covariance_3,position_covariance_4,position_covariance_5,position_covariance_6,position_covariance_7,position_covariance_8,position_covariance_type
1615421400.033,0,1615421400,32999992,/vehicle_frd,0,0,32.88574288439698,-117.11820500730695,150.56793635282207,0.0,0.0,0.0,0.0,0.0,0.0,0.0,0.0,0.0,0
1615421400.053,0,1615421400,52999973,/vehicle_frd,0,0,32.88574288439622,-117.11820500730754,150.5679364528221,0.0,0.0,0.0,0.0,0.0,0.0,0.0,0.0,0.0,0
1615421400.073,0,1615421400,72999954,/vehicle_frd,0,0,32.88574288439622,-117.11820500730754,150.5679364528221,0.0,0.0,0.0,0.0,0.0,0.0,0.0,0.0,0.0,0
1615421400.093,0,1615421400,92999935,/vehicle_frd,0,0,32.88574288439622,-117.11820500730754,150.5679364528221,0.0,0.0,0.0,0.0,0.0,0.0,0.0,0.0,0.0,0
1615421400.113,0,1615421400,112999916,/vehicle_frd,0,0,32.88574288439622,-117.11820500730754,150.5679364528221,0.0,0.0,0.0,0.0,0.0,0.0,0.0,0.0,0.0,0
1615421400.133,0,1615421400,132999897,/vehicle_frd,0,0,32.88574288439622,-117.11820500730754,150.5679364528221,0.0,0.0,0.0,0.0,0.0,0.0,0.0,0.0,0.0,0
1615421400.153,0,1615421400,153000116,/vehicle_frd,0,0,32.88574288439622,-117.11820500730754,150.5679364528221,0.0,0.0,0.0,0.0,0.0,0.0,0.0,0.0,0.0,0
1615421400.173,0,1615421400,173000097,/vehicle_frd,0,0,32.88574288439622,-117.11820500730754,150.5679364528221,0.0,0.0,0.0,0.0,0.0,0.0,0.0,0.0,0.0,0
1615421400.193,0,1615421400,193000078,/vehicle_frd,0,0,32.88574288439622,-117.11820500730754,150.5679364528221,0.0,0.0,0.0,0.0,0.0,0.0,0.0,0.0,0.0,0
1615421400.213,0,1615421400,213000059,/vehicle_frd,0,0,32.88574288439622,-117.11820500730754,150.5679364528221,0.0,0.0,0.0,0.0,0.0,0.0,0.0,0.0,0.0,0
1615421400.233,0,1615421400,233000040,/vehicle_frd,0,0,32.88574288439622,-117.11820500730754,150.5679364528221,0.0,0.0,0.0,0.0,0.0,0.0,0.0,0.0,0.0,0
1615421400.253,0,1615421400,253000021,/vehicle_frd,0,0,32.88574288439546,-117.1182050073081,150.56793655282206,0.0,0.0,0.0,0.0,0.0,0.0,0.0,0.0,0.0,0
1615421400.273,0,1615421400,273000002,/vehicle_frd,0,0,32.88574288439546,-117.1182050073081,150.56793655282206,0.0,0.0,0.0,0.0,0.0,0.0,0.0,0.0,0.0,0
1615421400.293,0,1615421400,292999983,/vehicle_frd,0,0,32.88574288439546,-117.1182050073081,150.56793655282206,0.0,0.0,0.0,0.0,0.0,0.0,0.0,0.0,0.0,0
1615421400.312,0,1615421400,312000036,/vehicle_frd,0,0,32.88574288439546,-117.1182050073081,150.56793655282206,0.0,0.0,0.0,0.0,0.0,0.0,0.0,0.0,0.0,0
1615421400.332,0,1615421400,332000017,/vehicle_frd,0,0,32.88574288439546,-117.1182050073081,150.56793655282206,0.0,0.0,0.0,0.0,0.0,0.0,0.0,0.0,0.0,0
1615421400.352,0,1615421400,351999998,/vehicle_frd,0,0,32.88574288439546,-117.1182050073081,150.56793655282206,0.0,0.0,0.0,0.0,0.0,0.0,0.0,0.0,0.0,0
1615421400.372,0,1615421400,371999979,/vehicle_frd,0,0,32.88574288439546,-117.1182050073081,150.56793655282206,0.0,0.0,0.0,0.0,0.0,0.0,0.0,0.0,0.0,0
1615421400.392,0,1615421400,391999960,/vehicle_frd,0,0,32.88574288439546,-117.1182050073081,150.56793655282206,0.0,0.0,0.0,0.0,0.0,0.0,0.0,0.0,0.0,0
1615421400.412,0,1615421400,411999941,/vehicle_frd,0,0,32.88574288439546,-117.1182050073081,150.56793655282206,0.0,0.0,0.0,0.0,0.0,0.0,0.0,0.0,0.0,0
1615421400.432,0,1615421400,431999922,/vehicle_frd,0,0,32.88574288439546,-117.1182050073081,150.56793655282206,0.0,0.0,0.0,0.0,0.0,0.0,0.0,0.0,0.0,0
1615421400.452,0,1615421400,451999903,/vehicle_frd,0,0,32.88574288439471,-117.11820500730869,150.56793665282208,0.0,0.0,0.0,0.0,0.0,0.0,0.0,0.0,0.0,0
1615421400.472,0,1615421400,471999884,/vehicle_frd,0,0,32.88574288439471,-117.11820500730869,150.56793665282208,0.0,0.0,0.0,0.0,0.0,0.0,0.0,0.0,0.0,0
1615421400.492,0,1615421400,492000103,/vehicle_frd,0,0,32.88574288439471,-117.11820500730869,150.56793665282208,0.0,0.0,0.0,0.0,0.0,0.0,0.0,0.0,0.0,0
1615421400.512,0,1615421400,512000084,/vehicle_frd,0,0,32.88574288439471,-117.11820500730869,150.56793665282208,0.0,0.0,0.0,0.0,0.0,0.0,0.0,0.0,0.0,0
1615421400.532,0,1615421400,532000065,/vehicle_frd,0,0,32.88574288439471,-117.11820500730869,150.56793665282208,0.0,0.0,0.0,0.0,0.0,0.0,0.0,0.0,0.0,0
1615421400.552,0,1615421400,552000046,/vehicle_frd,0,0,32.88574288439471,-117.11820500730869,150.56793665282208,0.0,0.0,0.0,0.0,0.0,0.0,0.0,0.0,0.0,0
1615421400.572,0,1615421400,572000027,/vehicle_frd,0,0,32.88574288439471,-117.11820500730869,150.56793665282208,0.0,0.0,0.0,0.0,0.0,0.0,0.0,0.0,0.0,0
1615421400.592,0,1615421400,592000008,/vehicle_frd,0,0,32.88574288439471,-117.11820500730869,150.56793665282208,0.0,0.0,0.0,0.0,0.0,0.0,0.0,0.0,0.0,0
1615421400.612,0,1615421400,611999989,/vehicle_frd,0,0,32.88574288439471,-117.11820500730869,150.56793665282208,0.0,0.0,0.0,0.0,0.0,0.0,0.0,0.0,0.0,0
1615421400.632,0,1615421400,631999969,/vehicle_frd,0,0,32.88574288439471,-117.11820500730869,150.56793665282208,0.0,0.0,0.0,0.0,0.0,0.0,0.0,0.0,0.0,0
1615421400.652,0,1615421400,651999950,/vehicle_frd,0,0,32.88574288439471,-117.11820500730869,150.56793665282208,0.0,0.0,0.0,0.0,0.0,0.0,0.0,0.0,0.0,0
1615421400.672,0,1615421400,671999931,/vehicle_frd,0,0,32.88574288439382,-117.11820500730892,150.56793675282208,0.0,0.0,0.0,0.0,0.0,0.0,0.0,0.0,0.0,0
1615421400.692,0,1615421400,691999912,/vehicle_frd,0,0,32.88574288439382,-117.11820500730892,150.56793675282208,0.0,0.0,0.0,0.0,0.0,0.0,0.0,0.0,0.0,0
1615421400.712,0,1615421400,711999893,/vehicle_frd,0,0,32.88574288439382,-117.11820500730892,150.56793675282208,0.0,0.0,0.0,0.0,0.0,0.0,0.0,0.0,0.0,0
1615421400.732,0,1615421400,732000113,/vehicle_frd,0,0,32.88574288439382,-117.11820500730892,150.56793675282208,0.0,0.0,0.0,0.0,0.0,0.0,0.0,0.0,0.0,0
1615421400.752,0,1615421400,752000093,/vehicle_frd,0,0,32.88574288439382,-117.11820500730892,150.56793675282208,0.0,0.0,0.0,0.0,0.0,0.0,0.0,0.0,0.0,0
1615421400.772,0,1615421400,772000074,/vehicle_frd,0,0,32.88574288439382,-117.11820500730892,150.56793675282208,0.0,0.0,0.0,0.0,0.0,0.0,0.0,0.0,0.0,0
1615421400.792,0,1615421400,792000055,/vehicle_frd,0,0,32.88574288439382,-117.11820500730892,150.56793675282208,0.0,0.0,0.0,0.0,0.0,0.0,0.0,0.0,0.0,0
1615421400.812,0,1615421400,812000036,/vehicle_frd,0,0,32.88574288439382,-117.11820500730892,150.56793675282208,0.0,0.0,0.0,0.0,0.0,0.0,0.0,0.0,0.0,0
1615421400.832,0,1615421400,832000017,/vehicle_frd,0,0,32.88574288439382,-117.11820500730892,150.56793675282208,0.0,0.0,0.0,0.0,0.0,0.0,0.0,0.0,0.0,0
1615421400.852,0,1615421400,851999998,/vehicle_frd,0,0,32.88574288439294,-117.11820500730914,150.56793685282207,0.0,0.0,0.0,0.0,0.0,0.0,0.0,0.0,0.0,0
1615421400.872,0,1615421400,871999979,/vehicle_frd,0,0,32.88574288439294,-117.11820500730914,150.56793685282207,0.0,0.0,0.0,0.0,0.0,0.0,0.0,0.0,0.0,0
1615421400.892,0,1615421400,891999960,/vehicle_frd,0,0,32.88574288439294,-117.11820500730914,150.56793685282207,0.0,0.0,0.0,0.0,0.0,0.0,0.0,0.0,0.0,0
1615421400.912,0,1615421400,911999941,/vehicle_frd,0,0,32.88574288439294,-117.11820500730914,150.56793685282207,0.0,0.0,0.0,0.0,0.0,0.0,0.0,0.0,0.0,0
1615421400.932,0,1615421400,931999922,/vehicle_frd,0,0,32.88574288439294,-117.11820500730914,150.56793685282207,0.0,0.0,0.0,0.0,0.0,0.0,0.0,0.0,0.0,0
1615421400.952,0,1615421400,951999903,/vehicle_frd,0,0,32.88574288439294,-117.11820500730914,150.56793685282207,0.0,0.0,0.0,0.0,0.0,0.0,0.0,0.0,0.0,0
1615421400.972,0,1615421400,971999884,/vehicle_frd,0,0,32.88574288439294,-117.11820500730914,150.56793685282207,0.0,0.0,0.0,0.0,0.0,0.0,0.0,0.0,0.0,0
1615421400.992,0,1615421400,992000103,/vehicle_frd,0,0,32.88574288439294,-117.11820500730914,150.56793685282207,0.0,0.0,0.0,0.0,0.0,0.0,0.0,0.0,0.0,0
1615421401.012,0,1615421401,12000084,/vehicle_frd,0,0,32.88574288439294,-117.11820500730914,150.56793685282207,0.0,0.0,0.0,0.0,0.0,0.0,0.0,0.0,0.0,0
1615421401.032,0,1615421401,32000065,/vehicle_frd,0,0,32.88574288439294,-117.11820500730914,150.56793685282207,0.0,0.0,0.0,0.0,0.0,0.0,0.0,0.0,0.0,0
1615421401.052,0,1615421401,52000046,/vehicle_frd,0,0,32.885742884392066,-117.11820500730937,150.5679369528221,0.0,0.0,0.0,0.0,0.0,0.0,0.0,0.0,0.0,0
1615421401.072,0,1615421401,72000027,/vehicle_frd,0,0,32.885742884392066,-117.11820500730937,150.5679369528221,0.0,0.0,0.0,0.0,0.0,0.0,0.0,0.0,0.0,0
1615421401.092,0,1615421401,92000008,/vehicle_frd,0,0,32.885742884392066,-117.11820500730937,150.5679369528221,0.0,0.0,0.0,0.0,0.0,0.0,0.0,0.0,0.0,0
1615421401.112,0,1615421401,111999989,/vehicle_frd,0,0,32.885742884392066,-117.11820500730937,150.5679369528221,0.0,0.0,0.0,0.0,0.0,0.0,0.0,0.0,0.0,0
1615421401.132,0,1615421401,131999969,/vehicle_frd,0,0,32.885742884392066,-117.11820500730937,150.5679369528221,0.0,0.0,0.0,0.0,0.0,0.0,0.0,0.0,0.0,0
1615421401.152,0,1615421401,151999950,/vehicle_frd,0,0,32.885742884392066,-117.11820500730937,150.5679369528221,0.0,0.0,0.0,0.0,0.0,0.0,0.0,0.0,0.0,0
1615421401.172,0,1615421401,171999931,/vehicle_frd,0,0,32.885742884392066,-117.11820500730937,150.5679369528221,0.0,0.0,0.0,0.0,0.0,0.0,0.0,0.0,0.0,0
1615421401.192,0,1615421401,191999912,/vehicle_frd,0,0,32.885742884392066,-117.11820500730937,150.5679369528221,0.0,0.0,0.0,0.0,0.0,0.0,0.0,0.0,0.0,0
1615421401.212,0,1615421401,211999893,/vehicle_frd,0,0,32.885742884392066,-117.11820500730937,150.5679369528221,0.0,0.0,0.0,0.0,0.0,0.0,0.0,0.0,0.0,0
1615421401.232,0,1615421401,232000113,/vehicle_frd,0,0,32.885742884392066,-117.11820500730937,150.5679369528221,0.0,0.0,0.0,0.0,0.0,0.0,0.0,0.0,0.0,0
1615421401.252,0,1615421401,252000093,/vehicle_frd,0,0,32.885742884391156,-117.11820500730951,150.56793685282207,0.0,0.0,0.0,0.0,0.0,0.0,0.0,0.0,0.0,0
1615421401.272,0,1615421401,272000074,/vehicle_frd,0,0,32.885742884391156,-117.11820500730951,150.56793685282207,0.0,0.0,0.0,0.0,0.0,0.0,0.0,0.0,0.0,0
1615421401.292,0,1615421401,292000055,/vehicle_frd,0,0,32.885742884391156,-117.11820500730951,150.56793685282207,0.0,0.0,0.0,0.0,0.0,0.0,0.0,0.0,0.0,0
1615421401.312,0,1615421401,312000036,/vehicle_frd,0,0,32.885742884391156,-117.11820500730951,150.56793685282207,0.0,0.0,0.0,0.0,0.0,0.0,0.0,0.0,0.0,0
1615421401.332,0,1615421401,332000017,/vehicle_frd,0,0,32.885742884391156,-117.11820500730951,150.56793685282207,0.0,0.0,0.0,0.0,0.0,0.0,0.0,0.0,0.0,0
1615421401.352,0,1615421401,351999998,/vehicle_frd,0,0,32.885742884391156,-117.11820500730951,150.56793685282207,0.0,0.0,0.0,0.0,0.0,0.0,0.0,0.0,0.0,0
1615421401.372,0,1615421401,371999979,/vehicle_frd,0,0,32.885742884391156,-117.11820500730951,150.56793685282207,0.0,0.0,0.0,0.0,0.0,0.0,0.0,0.0,0.0,0
1615421401.392,0,1615421401,391999960,/vehicle_frd,0,0,32.885742884391156,-117.11820500730951,150.56793685282207,0.0,0.0,0.0,0.0,0.0,0.0,0.0,0.0,0.0,0
1615421401.412,0,1615421401,411999941,/vehicle_frd,0,0,32.885742884391156,-117.11820500730951,150.56793685282207,0.0,0.0,0.0,0.0,0.0,0.0,0.0,0.0,0.0,0
1615421401.432,0,1615421401,431999922,/vehicle_frd,0,0,32.885742884391156,-117.11820500730951,150.56793685282207,0.0,0.0,0.0,0.0,0.0,0.0,0.0,0.0,0.0,0
1615421401.452,0,1615421401,451999903,/vehicle_frd,0,0,32.88574288439026,-117.11820500730965,150.56793675282208,0.0,0.0,0.0,0.0,0.0,0.0,0.0,0.0,0.0,0
1615421401.472,0,1615421401,471999884,/vehicle_frd,0,0,32.88574288439026,-117.11820500730965,150.56793675282208,0.0,0.0,0.0,0.0,0.0,0.0,0.0,0.0,0.0,0
1615421401.492,0,1615421401,492000103,/vehicle_frd,0,0,32.88574288439026,-117.11820500730965,150.56793675282208,0.0,0.0,0.0,0.0,0.0,0.0,0.0,0.0,0.0,0
1615421401.512,0,1615421401,512000084,/vehicle_frd,0,0,32.88574288439026,-117.11820500730965,150.56793675282208,0.0,0.0,0.0,0.0,0.0,0.0,0.0,0.0,0.0,0
1615421401.532,0,1615421401,532000065,/vehicle_frd,0,0,32.88574288439026,-117.11820500730965,150.56793675282208,0.0,0.0,0.0,0.0,0.0,0.0,0.0,0.0,0.0,0
1615421401.552,0,1615421401,552000046,/vehicle_frd,0,0,32.88574288439026,-117.11820500730965,150.56793675282208,0.0,0.0,0.0,0.0,0.0,0.0,0.0,0.0,0.0,0
1615421401.572,0,1615421401,572000027,/vehicle_frd,0,0,32.88574288439026,-117.11820500730965,150.56793675282208,0.0,0.0,0.0,0.0,0.0,0.0,0.0,0.0,0.0,0
1615421401.592,0,1615421401,592000008,/vehicle_frd,0,0,32.88574288439026,-117.11820500730965,150.56793675282208,0.0,0.0,0.0,0.0,0.0,0.0,0.0,0.0,0.0,0
1615421401.612,0,1615421401,611999989,/vehicle_frd,0,0,32.88574288439026,-117.11820500730965,150.56793675282208,0.0,0.0,0.0,0.0,0.0,0.0,0.0,0.0,0.0,0
1615421401.632,0,1615421401,631999969,/vehicle_frd,0,0,32.88574288439026,-117.11820500730965,150.56793675282208,0.0,0.0,0.0,0.0,0.0,0.0,0.0,0.0,0.0,0
1615421401.652,0,1615421401,651999950,/vehicle_frd,0,0,32.88574288438937,-117.1182050073098,150.56793665282208,0.0,0.0,0.0,0.0,0.0,0.0,0.0,0.0,0.0,0
1615421401.672,0,1615421401,671999931,/vehicle_frd,0,0,32.88574288438937,-117.1182050073098,150.56793665282208,0.0,0.0,0.0,0.0,0.0,0.0,0.0,0.0,0.0,0
1615421401.692,0,1615421401,691999912,/vehicle_frd,0,0,32.88574288438937,-117.1182050073098,150.56793665282208,0.0,0.0,0.0,0.0,0.0,0.0,0.0,0.0,0.0,0
1615421401.712,0,1615421401,711999893,/vehicle_frd,0,0,32.88574288438937,-117.1182050073098,150.56793665282208,0.0,0.0,0.0,0.0,0.0,0.0,0.0,0.0,0.0,0
1615421401.732,0,1615421401,732000113,/vehicle_frd,0,0,32.88574288438937,-117.1182050073098,150.56793665282208,0.0,0.0,0.0,0.0,0.0,0.0,0.0,0.0,0.0,0
1615421401.752,0,1615421401,752000093,/vehicle_frd,0,0,32.88574288438937,-117.1182050073098,150.56793665282208,0.0,0.0,0.0,0.0,0.0,0.0,0.0,0.0,0.0,0
1615421401.772,0,1615421401,772000074,/vehicle_frd,0,0,32.88574288438937,-117.1182050073098,150.56793665282208,0.0,0.0,0.0,0.0,0.0,0.0,0.0,0.0,0.0,0
1615421401.792,0,1615421401,792000055,/vehicle_frd,0,0,32.88574288438937,-117.1182050073098,150.56793665282208,0.0,0.0,0.0,0.0,0.0,0.0,0.0,0.0,0.0,0
1615421401.812,0,1615421401,812000036,/vehicle_frd,0,0,32.88574288438937,-117.1182050073098,150.56793665282208,0.0,0.0,0.0,0.0,0.0,0.0,0.0,0.0,0.0,0
1615421401.832,0,1615421401,832000017,/vehicle_frd,0,0,32.88574288438937,-117.1182050073098,150.56793665282208,0.0,0.0,0.0,0.0,0.0,0.0,0.0,0.0,0.0,0
1615421401.852,0,1615421401,851999998,/vehicle_frd,0,0,32.8857428843885,-117.11820500731007,150.56793655282206,0.0,0.0,0.0,0.0,0.0,0.0,0.0,0.0,0.0,0
1615421401.872,0,1615421401,871999979,/vehicle_frd,0,0,32.8857428843885,-117.11820500731007,150.56793655282206,0.0,0.0,0.0,0.0,0.0,0.0,0.0,0.0,0.0,0
1615421401.892,0,1615421401,891999960,/vehicle_frd,0,0,32.8857428843885,-117.11820500731007,150.56793655282206,0.0,0.0,0.0,0.0,0.0,0.0,0.0,0.0,0.0,0
1615421401.912,0,1615421401,911999941,/vehicle_frd,0,0,32.8857428843885,-117.11820500731007,150.56793655282206,0.0,0.0,0.0,0.0,0.0,0.0,0.0,0.0,0.0,0
1615421401.932,0,1615421401,931999922,/vehicle_frd,0,0,32.8857428843885,-117.11820500731007,150.56793655282206,0.0,0.0,0.0,0.0,0.0,0.0,0.0,0.0,0.0,0
1615421401.952,0,1615421401,951999903,/vehicle_frd,0,0,32.8857428843885,-117.11820500731007,150.56793655282206,0.0,0.0,0.0,0.0,0.0,0.0,0.0,0.0,0.0,0
1615421401.972,0,1615421401,971999884,/vehicle_frd,0,0,32.8857428843885,-117.11820500731007,150.56793655282206,0.0,0.0,0.0,0.0,0.0,0.0,0.0,0.0,0.0,0
1615421401.992,0,1615421401,992000103,/vehicle_frd,0,0,32.8857428843885,-117.11820500731007,150.56793655282206,0.0,0.0,0.0,0.0,0.0,0.0,0.0,0.0,0.0,0
1615421402.012,0,1615421402,12000084,/vehicle_frd,0,0,32.8857428843885,-117.11820500731007,150.56793655282206,0.0,0.0,0.0,0.0,0.0,0.0,0.0,0.0,0.0,0
1615421402.032,0,1615421402,32000065,/vehicle_frd,0,0,32.8857428843885,-117.11820500731007,150.56793655282206,0.0,0.0,0.0,0.0,0.0,0.0,0.0,0.0,0.0,0
1615421402.052,0,1615421402,52000046,/vehicle_frd,0,0,32.885742884387625,-117.11820500731035,150.5679364528221,0.0,0.0,0.0,0.0,0.0,0.0,0.0,0.0,0.0,0
1615421402.072,0,1615421402,72000027,/vehicle_frd,0,0,32.885742884387625,-117.11820500731035,150.5679364528221,0.0,0.0,0.0,0.0,0.0,0.0,0.0,0.0,0.0,0
1615421402.092,0,1615421402,92000008,/vehicle_frd,0,0,32.885742884387625,-117.11820500731035,150.5679364528221,0.0,0.0,0.0,0.0,0.0,0.0,0.0,0.0,0.0,0
1615421402.112,0,1615421402,111999989,/vehicle_frd,0,0,32.885742884387625,-117.11820500731035,150.5679364528221,0.0,0.0,0.0,0.0,0.0,0.0,0.0,0.0,0.0,0
1615421402.132,0,1615421402,131999969,/vehicle_frd,0,0,32.885742884387625,-117.11820500731035,150.5679364528221,0.0,0.0,0.0,0.0,0.0,0.0,0.0,0.0,0.0,0
1615421402.152,0,1615421402,151999950,/vehicle_frd,0,0,32.885742884387625,-117.11820500731035,150.5679364528221,0.0,0.0,0.0,0.0,0.0,0.0,0.0,0.0,0.0,0
1615421402.172,0,1615421402,171999931,/vehicle_frd,0,0,32.885742884387625,-117.11820500731035,150.5679364528221,0.0,0.0,0.0,0.0,0.0,0.0,0.0,0.0,0.0,0
1615421402.192,0,1615421402,191999912,/vehicle_frd,0,0,32.885742884387625,-117.11820500731035,150.5679364528221,0.0,0.0,0.0,0.0,0.0,0.0,0.0,0.0,0.0,0
1615421402.212,0,1615421402,211999893,/vehicle_frd,0,0,32.885742884387625,-117.11820500731035,150.5679364528221,0.0,0.0,0.0,0.0,0.0,0.0,0.0,0.0,0.0,0
1615421402.232,0,1615421402,232000113,/vehicle_frd,0,0,32.885742884387625,-117.11820500731035,150.5679364528221,0.0,0.0,0.0,0.0,0.0,0.0,0.0,0.0,0.0,0
1615421402.252,0,1615421402,252000093,/vehicle_frd,0,0,32.885742884386765,-117.11820500731064,150.56793635282207,0.0,0.0,0.0,0.0,0.0,0.0,0.0,0.0,0.0,0
1615421402.272,0,1615421402,272000074,/vehicle_frd,0,0,32.885742884386765,-117.11820500731064,150.56793635282207,0.0,0.0,0.0,0.0,0.0,0.0,0.0,0.0,0.0,0
1615421402.292,0,1615421402,292000055,/vehicle_frd,0,0,32.885742884386765,-117.11820500731064,150.56793635282207,0.0,0.0,0.0,0.0,0.0,0.0,0.0,0.0,0.0,0
1615421402.312,0,1615421402,312000036,/vehicle_frd,0,0,32.885742884386765,-117.11820500731064,150.56793635282207,0.0,0.0,0.0,0.0,0.0,0.0,0.0,0.0,0.0,0
1615421402.332,0,1615421402,332000017,/vehicle_frd,0,0,32.885742884386765,-117.11820500731064,150.56793635282207,0.0,0.0,0.0,0.0,0.0,0.0,0.0,0.0,0.0,0
1615421402.352,0,1615421402,351999998,/vehicle_frd,0,0,32.885742884386765,-117.11820500731064,150.56793635282207,0.0,0.0,0.0,0.0,0.0,0.0,0.0,0.0,0.0,0
1615421402.372,0,1615421402,371999979,/vehicle_frd,0,0,32.885742884386765,-117.11820500731064,150.56793635282207,0.0,0.0,0.0,0.0,0.0,0.0,0.0,0.0,0.0,0
1615421402.392,0,1615421402,391999960,/vehicle_frd,0,0,32.885742884386765,-117.11820500731064,150.56793635282207,0.0,0.0,0.0,0.0,0.0,0.0,0.0,0.0,0.0,0
1615421402.412,0,1615421402,411999941,/vehicle_frd,0,0,32.885742884386765,-117.11820500731064,150.56793635282207,0.0,0.0,0.0,0.0,0.0,0.0,0.0,0.0,0.0,0
1615421402.432,0,1615421402,431999922,/vehicle_frd,0,0,32.885742884386765,-117.11820500731064,150.56793635282207,0.0,0.0,0.0,0.0,0.0,0.0,0.0,0.0,0.0,0
1615421402.452,0,1615421402,451999903,/vehicle_frd,0,0,32.88574288438591,-117.11820500731096,150.56793625282208,0.0,0.0,0.0,0.0,0.0,0.0,0.0,0.0,0.0,0
1615421402.472,0,1615421402,471999884,/vehicle_frd,0,0,32.88574288438591,-117.11820500731096,150.56793625282208,0.0,0.0,0.0,0.0,0.0,0.0,0.0,0.0,0.0,0
1615421402.492,0,1615421402,492000103,/vehicle_frd,0,0,32.88574288438591,-117.11820500731096,150.56793625282208,0.0,0.0,0.0,0.0,0.0,0.0,0.0,0.0,0.0,0
1615421402.512,0,1615421402,512000084,/vehicle_frd,0,0,32.88574288438591,-117.11820500731096,150.56793625282208,0.0,0.0,0.0,0.0,0.0,0.0,0.0,0.0,0.0,0
1615421402.532,0,1615421402,532000065,/vehicle_frd,0,0,32.88574288438591,-117.11820500731096,150.56793625282208,0.0,0.0,0.0,0.0,0.0,0.0,0.0,0.0,0.0,0
1615421402.552,0,1615421402,552000046,/vehicle_frd,0,0,32.88574288438591,-117.11820500731096,150.56793625282208,0.0,0.0,0.0,0.0,0.0,0.0,0.0,0.0,0.0,0
1615421402.572,0,1615421402,572000027,/vehicle_frd,0,0,32.88574288438591,-117.11820500731096,150.56793625282208,0.0,0.0,0.0,0.0,0.0,0.0,0.0,0.0,0.0,0
1615421402.592,0,1615421402,592000008,/vehicle_frd,0,0,32.88574288438591,-117.11820500731096,150.56793625282208,0.0,0.0,0.0,0.0,0.0,0.0,0.0,0.0,0.0,0
1615421402.612,0,1615421402,611999989,/vehicle_frd,0,0,32.88574288438591,-117.11820500731096,150.56793625282208,0.0,0.0,0.0,0.0,0.0,0.0,0.0,0.0,0.0,0
1615421402.632,0,1615421402,631999969,/vehicle_frd,0,0,32.88574288438591,-117.11820500731096,150.56793625282208,0.0,0.0,0.0,0.0,0.0,0.0,0.0,0.0,0.0,0
1615421402.652,0,1615421402,651999950,/vehicle_frd,0,0,32.885742884385046,-117.1182050073113,150.56793615282209,0.0,0.0,0.0,0.0,0.0,0.0,0.0,0.0,0.0,0
1615421402.672,0,1615421402,671999931,/vehicle_frd,0,0,32.885742884385046,-117.1182050073113,150.56793615282209,0.0,0.0,0.0,0.0,0.0,0.0,0.0,0.0,0.0,0
1615421402.692,0,1615421402,691999912,/vehicle_frd,0,0,32.885742884385046,-117.1182050073113,150.56793615282209,0.0,0.0,0.0,0.0,0.0,0.0,0.0,0.0,0.0,0
1615421402.712,0,1615421402,711999893,/vehicle_frd,0,0,32.885742884385046,-117.1182050073113,150.56793615282209,0.0,0.0,0.0,0.0,0.0,0.0,0.0,0.0,0.0,0
1615421402.732,0,1615421402,732000113,/vehicle_frd,0,0,32.885742884385046,-117.1182050073113,150.56793615282209,0.0,0.0,0.0,0.0,0.0,0.0,0.0,0.0,0.0,0
1615421402.752,0,1615421402,752000093,/vehicle_frd,0,0,32.885742884385046,-117.1182050073113,150.56793615282209,0.0,0.0,0.0,0.0,0.0,0.0,0.0,0.0,0.0,0
1615421402.772,0,1615421402,772000074,/vehicle_frd,0,0,32.885742884385046,-117.1182050073113,150.56793615282209,0.0,0.0,0.0,0.0,0.0,0.0,0.0,0.0,0.0,0
1615421402.792,0,1615421402,792000055,/vehicle_frd,0,0,32.885742884385046,-117.1182050073113,150.56793615282209,0.0,0.0,0.0,0.0,0.0,0.0,0.0,0.0,0.0,0
1615421402.812,0,1615421402,812000036,/vehicle_frd,0,0,32.885742884385046,-117.1182050073113,150.56793615282209,0.0,0.0,0.0,0.0,0.0,0.0,0.0,0.0,0.0,0
1615421402.832,0,1615421402,832000017,/vehicle_frd,0,0,32.885742884385046,-117.1182050073113,150.56793615282209,0.0,0.0,0.0,0.0,0.0,0.0,0.0,0.0,0.0,0
1615421402.852,0,1615421402,851999998,/vehicle_frd,0,0,32.88574288438419,-117.11820500731163,150.56793605282206,0.0,0.0,0.0,0.0,0.0,0.0,0.0,0.0,0.0,0
1615421402.872,0,1615421402,871999979,/vehicle_frd,0,0,32.88574288438419,-117.11820500731163,150.56793605282206,0.0,0.0,0.0,0.0,0.0,0.0,0.0,0.0,0.0,0
1615421402.892,0,1615421402,891999960,/vehicle_frd,0,0,32.88574288438419,-117.11820500731163,150.56793605282206,0.0,0.0,0.0,0.0,0.0,0.0,0.0,0.0,0.0,0
1615421402.912,0,1615421402,911999941,/vehicle_frd,0,0,32.88574288438419,-117.11820500731163,150.56793605282206,0.0,0.0,0.0,0.0,0.0,0.0,0.0,0.0,0.0,0
1615421402.932,0,1615421402,931999922,/vehicle_frd,0,0,32.88574288438419,-117.11820500731163,150.56793605282206,0.0,0.0,0.0,0.0,0.0,0.0,0.0,0.0,0.0,0
1615421402.952,0,1615421402,951999903,/vehicle_frd,0,0,32.88574288438419,-117.11820500731163,150.56793605282206,0.0,0.0,0.0,0.0,0.0,0.0,0.0,0.0,0.0,0
1615421402.972,0,1615421402,971999884,/vehicle_frd,0,0,32.88574288438419,-117.11820500731163,150.56793605282206,0.0,0.0,0.0,0.0,0.0,0.0,0.0,0.0,0.0,0
1615421402.992,0,1615421402,992000103,/vehicle_frd,0,0,32.88574288438419,-117.11820500731163,150.56793605282206,0.0,0.0,0.0,0.0,0.0,0.0,0.0,0.0,0.0,0
1615421403.012,0,1615421403,12000084,/vehicle_frd,0,0,32.88574288438419,-117.11820500731163,150.56793605282206,0.0,0.0,0.0,0.0,0.0,0.0,0.0,0.0,0.0,0
1615421403.032,0,1615421403,32000065,/vehicle_frd,0,0,32.88574288438419,-117.11820500731163,150.56793605282206,0.0,0.0,0.0,0.0,0.0,0.0,0.0,0.0,0.0,0
1615421403.052,0,1615421403,52000046,/vehicle_frd,0,0,32.885742884383475,-117.11820500731227,150.5679359528221,0.0,0.0,0.0,0.0,0.0,0.0,0.0,0.0,0.0,0
1615421403.072,0,1615421403,72000027,/vehicle_frd,0,0,32.885742884383475,-117.11820500731227,150.5679359528221,0.0,0.0,0.0,0.0,0.0,0.0,0.0,0.0,0.0,0
1615421403.092,0,1615421403,92000008,/vehicle_frd,0,0,32.885742884383475,-117.11820500731227,150.5679359528221,0.0,0.0,0.0,0.0,0.0,0.0,0.0,0.0,0.0,0
1615421403.112,0,1615421403,111999989,/vehicle_frd,0,0,32.885742884383475,-117.11820500731227,150.5679359528221,0.0,0.0,0.0,0.0,0.0,0.0,0.0,0.0,0.0,0
1615421403.132,0,1615421403,131999969,/vehicle_frd,0,0,32.885742884383475,-117.11820500731227,150.5679359528221,0.0,0.0,0.0,0.0,0.0,0.0,0.0,0.0,0.0,0
1615421403.152,0,1615421403,151999950,/vehicle_frd,0,0,32.885742884383475,-117.11820500731227,150.5679359528221,0.0,0.0,0.0,0.0,0.0,0.0,0.0,0.0,0.0,0
1615421403.172,0,1615421403,171999931,/vehicle_frd,0,0,32.885742884383475,-117.11820500731227,150.5679359528221,0.0,0.0,0.0,0.0,0.0,0.0,0.0,0.0,0.0,0
1615421403.192,0,1615421403,191999912,/vehicle_frd,0,0,32.885742884383475,-117.11820500731227,150.5679359528221,0.0,0.0,0.0,0.0,0.0,0.0,0.0,0.0,0.0,0
1615421403.212,0,1615421403,211999893,/vehicle_frd,0,0,32.885742884383475,-117.11820500731227,150.5679359528221,0.0,0.0,0.0,0.0,0.0,0.0,0.0,0.0,0.0,0
1615421403.232,0,1615421403,232000113,/vehicle_frd,0,0,32.885742884383475,-117.11820500731227,150.5679359528221,0.0,0.0,0.0,0.0,0.0,0.0,0.0,0.0,0.0,0
1615421403.252,0,1615421403,252000093,/vehicle_frd,0,0,32.88574288438275,-117.11820500731291,150.56793585282207,0.0,0.0,0.0,0.0,0.0,0.0,0.0,0.0,0.0,0
1615421403.272,0,1615421403,272000074,/vehicle_frd,0,0,32.88574288438275,-117.11820500731291,150.56793585282207,0.0,0.0,0.0,0.0,0.0,0.0,0.0,0.0,0.0,0
1615421403.292,0,1615421403,292000055,/vehicle_frd,0,0,32.88574288438275,-117.11820500731291,150.56793585282207,0.0,0.0,0.0,0.0,0.0,0.0,0.0,0.0,0.0,0
1615421403.312,0,1615421403,312000036,/vehicle_frd,0,0,32.88574288438275,-117.11820500731291,150.56793585282207,0.0,0.0,0.0,0.0,0.0,0.0,0.0,0.0,0.0,0
1615421403.332,0,1615421403,332000017,/vehicle_frd,0,0,32.88574288438275,-117.11820500731291,150.56793585282207,0.0,0.0,0.0,0.0,0.0,0.0,0.0,0.0,0.0,0
1615421403.352,0,1615421403,351999998,/vehicle_frd,0,0,32.88574288438275,-117.11820500731291,150.56793585282207,0.0,0.0,0.0,0.0,0.0,0.0,0.0,0.0,0.0,0
1615421403.372,0,1615421403,371999979,/vehicle_frd,0,0,32.88574288438275,-117.11820500731291,150.56793585282207,0.0,0.0,0.0,0.0,0.0,0.0,0.0,0.0,0.0,0
1615421403.392,0,1615421403,391999960,/vehicle_frd,0,0,32.88574288438275,-117.11820500731291,150.56793585282207,0.0,0.0,0.0,0.0,0.0,0.0,0.0,0.0,0.0,0
1615421403.412,0,1615421403,411999941,/vehicle_frd,0,0,32.88574288438275,-117.11820500731291,150.56793585282207,0.0,0.0,0.0,0.0,0.0,0.0,0.0,0.0,0.0,0
1615421403.432,0,1615421403,431999922,/vehicle_frd,0,0,32.88574288438275,-117.11820500731291,150.56793585282207,0.0,0.0,0.0,0.0,0.0,0.0,0.0,0.0,0.0,0
1615421403.452,0,1615421403,451999903,/vehicle_frd,0,0,32.885742884382026,-117.11820500731355,150.56793575282208,0.0,0.0,0.0,0.0,0.0,0.0,0.0,0.0,0.0,0
1615421403.472,0,1615421403,471999884,/vehicle_frd,0,0,32.885742884382026,-117.11820500731355,150.56793575282208,0.0,0.0,0.0,0.0,0.0,0.0,0.0,0.0,0.0,0
1615421403.492,0,1615421403,492000103,/vehicle_frd,0,0,32.885742884382026,-117.11820500731355,150.56793575282208,0.0,0.0,0.0,0.0,0.0,0.0,0.0,0.0,0.0,0
1615421403.512,0,1615421403,512000084,/vehicle_frd,0,0,32.885742884382026,-117.11820500731355,150.56793575282208,0.0,0.0,0.0,0.0,0.0,0.0,0.0,0.0,0.0,0
1615421403.532,0,1615421403,532000065,/vehicle_frd,0,0,32.885742884382026,-117.11820500731355,150.56793575282208,0.0,0.0,0.0,0.0,0.0,0.0,0.0,0.0,0.0,0
1615421403.552,0,1615421403,552000046,/vehicle_frd,0,0,32.885742884382026,-117.11820500731355,150.56793575282208,0.0,0.0,0.0,0.0,0.0,0.0,0.0,0.0,0.0,0
1615421403.572,0,1615421403,572000027,/vehicle_frd,0,0,32.885742884382026,-117.11820500731355,150.56793575282208,0.0,0.0,0.0,0.0,0.0,0.0,0.0,0.0,0.0,0
1615421403.592,0,1615421403,592000008,/vehicle_frd,0,0,32.885742884382026,-117.11820500731355,150.56793575282208,0.0,0.0,0.0,0.0,0.0,0.0,0.0,0.0,0.0,0
1615421403.612,0,1615421403,611999989,/vehicle_frd,0,0,32.885742884382026,-117.11820500731355,150.56793575282208,0.0,0.0,0.0,0.0,0.0,0.0,0.0,0.0,0.0,0
1615421403.632,0,1615421403,631999969,/vehicle_frd,0,0,32.885742884382026,-117.11820500731355,150.56793575282208,0.0,0.0,0.0,0.0,0.0,0.0,0.0,0.0,0.0,0
1615421403.652,0,1615421403,651999950,/vehicle_frd,0,0,32.88574288438142,-117.11820500731434,150.5679356528221,0.0,0.0,0.0,0.0,0.0,0.0,0.0,0.0,0.0,0
1615421403.672,0,1615421403,671999931,/vehicle_frd,0,0,32.88574288438142,-117.11820500731434,150.5679356528221,0.0,0.0,0.0,0.0,0.0,0.0,0.0,0.0,0.0,0
1615421403.692,0,1615421403,691999912,/vehicle_frd,0,0,32.88574288438142,-117.11820500731434,150.5679356528221,0.0,0.0,0.0,0.0,0.0,0.0,0.0,0.0,0.0,0
1615421403.712,0,1615421403,711999893,/vehicle_frd,0,0,32.88574288438142,-117.11820500731434,150.5679356528221,0.0,0.0,0.0,0.0,0.0,0.0,0.0,0.0,0.0,0
1615421403.732,0,1615421403,732000113,/vehicle_frd,0,0,32.88574288438142,-117.11820500731434,150.5679356528221,0.0,0.0,0.0,0.0,0.0,0.0,0.0,0.0,0.0,0
1615421403.752,0,1615421403,752000093,/vehicle_frd,0,0,32.88574288438142,-117.11820500731434,150.5679356528221,0.0,0.0,0.0,0.0,0.0,0.0,0.0,0.0,0.0,0
1615421403.772,0,1615421403,772000074,/vehicle_frd,0,0,32.88574288438142,-117.11820500731434,150.5679356528221,0.0,0.0,0.0,0.0,0.0,0.0,0.0,0.0,0.0,0
1615421403.792,0,1615421403,792000055,/vehicle_frd,0,0,32.88574288438142,-117.11820500731434,150.5679356528221,0.0,0.0,0.0,0.0,0.0,0.0,0.0,0.0,0.0,0
1615421403.812,0,1615421403,812000036,/vehicle_frd,0,0,32.88574288438142,-117.11820500731434,150.5679356528221,0.0,0.0,0.0,0.0,0.0,0.0,0.0,0.0,0.0,0
1615421403.832,0,1615421403,832000017,/vehicle_frd,0,0,32.88574288438142,-117.11820500731434,150.5679356528221,0.0,0.0,0.0,0.0,0.0,0.0,0.0,0.0,0.0,0
1615421403.852,0,1615421403,851999998,/vehicle_frd,0,0,32.885742884380825,-117.11820500731514,150.56793555282206,0.0,0.0,0.0,0.0,0.0,0.0,0.0,0.0,0.0,0
1615421403.872,0,1615421403,871999979,/vehicle_frd,0,0,32.885742884380825,-117.11820500731514,150.56793555282206,0.0,0.0,0.0,0.0,0.0,0.0,0.0,0.0,0.0,0
1615421403.892,0,1615421403,891999960,/vehicle_frd,0,0,32.885742884380825,-117.11820500731514,150.56793555282206,0.0,0.0,0.0,0.0,0.0,0.0,0.0,0.0,0.0,0
1615421403.912,0,1615421403,911999941,/vehicle_frd,0,0,32.885742884380825,-117.11820500731514,150.56793555282206,0.0,0.0,0.0,0.0,0.0,0.0,0.0,0.0,0.0,0
1615421403.932,0,1615421403,931999922,/vehicle_frd,0,0,32.885742884380825,-117.11820500731514,150.56793555282206,0.0,0.0,0.0,0.0,0.0,0.0,0.0,0.0,0.0,0
1615421403.952,0,1615421403,951999903,/vehicle_frd,0,0,32.885742884380825,-117.11820500731514,150.56793555282206,0.0,0.0,0.0,0.0,0.0,0.0,0.0,0.0,0.0,0
1615421403.972,0,1615421403,971999884,/vehicle_frd,0,0,32.885742884380825,-117.11820500731514,150.56793555282206,0.0,0.0,0.0,0.0,0.0,0.0,0.0,0.0,0.0,0
1615421403.992,0,1615421403,992000103,/vehicle_frd,0,0,32.885742884380825,-117.11820500731514,150.56793555282206,0.0,0.0,0.0,0.0,0.0,0.0,0.0,0.0,0.0,0
1615421404.012,0,1615421404,12000084,/vehicle_frd,0,0,32.885742884380825,-117.11820500731514,150.56793555282206,0.0,0.0,0.0,0.0,0.0,0.0,0.0,0.0,0.0,0
1615421404.032,0,1615421404,32000065,/vehicle_frd,0,0,32.885742884380825,-117.11820500731514,150.56793555282206,0.0,0.0,0.0,0.0,0.0,0.0,0.0,0.0,0.0,0
1615421404.052,0,1615421404,52000046,/vehicle_frd,0,0,32.885742884380214,-117.11820500731594,150.5679354528221,0.0,0.0,0.0,0.0,0.0,0.0,0.0,0.0,0.0,0
1615421404.072,0,1615421404,72000027,/vehicle_frd,0,0,32.885742884380214,-117.11820500731594,150.5679354528221,0.0,0.0,0.0,0.0,0.0,0.0,0.0,0.0,0.0,0
1615421404.092,0,1615421404,92000008,/vehicle_frd,0,0,32.885742884380214,-117.11820500731594,150.5679354528221,0.0,0.0,0.0,0.0,0.0,0.0,0.0,0.0,0.0,0
1615421404.112,0,1615421404,111999989,/vehicle_frd,0,0,32.885742884380214,-117.11820500731594,150.5679354528221,0.0,0.0,0.0,0.0,0.0,0.0,0.0,0.0,0.0,0
1615421404.132,0,1615421404,131999969,/vehicle_frd,0,0,32.885742884380214,-117.11820500731594,150.5679354528221,0.0,0.0,0.0,0.0,0.0,0.0,0.0,0.0,0.0,0
1615421404.152,0,1615421404,151999950,/vehicle_frd,0,0,32.885742884380214,-117.11820500731594,150.5679354528221,0.0,0.0,0.0,0.0,0.0,0.0,0.0,0.0,0.0,0
1615421404.172,0,1615421404,171999931,/vehicle_frd,0,0,32.885742884380214,-117.11820500731594,150.5679354528221,0.0,0.0,0.0,0.0,0.0,0.0,0.0,0.0,0.0,0
1615421404.192,0,1615421404,191999912,/vehicle_frd,0,0,32.885742884380214,-117.11820500731594,150.5679354528221,0.0,0.0,0.0,0.0,0.0,0.0,0.0,0.0,0.0,0
1615421404.212,0,1615421404,211999893,/vehicle_frd,0,0,32.885742884380214,-117.11820500731594,150.5679354528221,0.0,0.0,0.0,0.0,0.0,0.0,0.0,0.0,0.0,0
1615421404.232,0,1615421404,232000113,/vehicle_frd,0,0,32.885742884380214,-117.11820500731594,150.5679354528221,0.0,0.0,0.0,0.0,0.0,0.0,0.0,0.0,0.0,0
1615421404.252,0,1615421404,252000093,/vehicle_frd,0,0,32.88574288437973,-117.11820500731683,150.56793535282208,0.0,0.0,0.0,0.0,0.0,0.0,0.0,0.0,0.0,0
1615421404.272,0,1615421404,272000074,/vehicle_frd,0,0,32.88574288437973,-117.11820500731683,150.56793535282208,0.0,0.0,0.0,0.0,0.0,0.0,0.0,0.0,0.0,0
1615421404.292,0,1615421404,292000055,/vehicle_frd,0,0,32.88574288437973,-117.11820500731683,150.56793535282208,0.0,0.0,0.0,0.0,0.0,0.0,0.0,0.0,0.0,0
1615421404.312,0,1615421404,312000036,/vehicle_frd,0,0,32.88574288437973,-117.11820500731683,150.56793535282208,0.0,0.0,0.0,0.0,0.0,0.0,0.0,0.0,0.0,0
1615421404.332,0,1615421404,332000017,/vehicle_frd,0,0,32.88574288437973,-117.11820500731683,150.56793535282208,0.0,0.0,0.0,0.0,0.0,0.0,0.0,0.0,0.0,0
1615421404.352,0,1615421404,351999998,/vehicle_frd,0,0,32.88574288437973,-117.11820500731683,150.56793535282208,0.0,0.0,0.0,0.0,0.0,0.0,0.0,0.0,0.0,0
1615421404.372,0,1615421404,371999979,/vehicle_frd,0,0,32.88574288437973,-117.11820500731683,150.56793535282208,0.0,0.0,0.0,0.0,0.0,0.0,0.0,0.0,0.0,0
1615421404.392,0,1615421404,391999960,/vehicle_frd,0,0,32.88574288437973,-117.11820500731683,150.56793535282208,0.0,0.0,0.0,0.0,0.0,0.0,0.0,0.0,0.0,0
1615421404.412,0,1615421404,411999941,/vehicle_frd,0,0,32.88574288437973,-117.11820500731683,150.56793535282208,0.0,0.0,0.0,0.0,0.0,0.0,0.0,0.0,0.0,0
1615421404.432,0,1615421404,431999922,/vehicle_frd,0,0,32.88574288437973,-117.11820500731683,150.56793535282208,0.0,0.0,0.0,0.0,0.0,0.0,0.0,0.0,0.0,0
1615421404.452,0,1615421404,451999903,/vehicle_frd,0,0,32.88574288437923,-117.11820500731773,150.56793525282208,0.0,0.0,0.0,0.0,0.0,0.0,0.0,0.0,0.0,0
1615421404.472,0,1615421404,471999884,/vehicle_frd,0,0,32.88574288437923,-117.11820500731773,150.56793525282208,0.0,0.0,0.0,0.0,0.0,0.0,0.0,0.0,0.0,0
1615421404.492,0,1615421404,492000103,/vehicle_frd,0,0,32.88574288437923,-117.11820500731773,150.56793525282208,0.0,0.0,0.0,0.0,0.0,0.0,0.0,0.0,0.0,0
1615421404.512,0,1615421404,512000084,/vehicle_frd,0,0,32.88574288437923,-117.11820500731773,150.56793525282208,0.0,0.0,0.0,0.0,0.0,0.0,0.0,0.0,0.0,0
1615421404.532,0,1615421404,532000065,/vehicle_frd,0,0,32.88574288437923,-117.11820500731773,150.56793525282208,0.0,0.0,0.0,0.0,0.0,0.0,0.0,0.0,0.0,0
1615421404.552,0,1615421404,552000046,/vehicle_frd,0,0,32.88574288437923,-117.11820500731773,150.56793525282208,0.0,0.0,0.0,0.0,0.0,0.0,0.0,0.0,0.0,0
1615421404.572,0,1615421404,572000027,/vehicle_frd,0,0,32.88574288437923,-117.11820500731773,150.56793525282208,0.0,0.0,0.0,0.0,0.0,0.0,0.0,0.0,0.0,0
1615421404.592,0,1615421404,592000008,/vehicle_frd,0,0,32.88574288437923,-117.11820500731773,150.56793525282208,0.0,0.0,0.0,0.0,0.0,0.0,0.0,0.0,0.0,0
1615421404.612,0,1615421404,611999989,/vehicle_frd,0,0,32.88574288437923,-117.11820500731773,150.56793525282208,0.0,0.0,0.0,0.0,0.0,0.0,0.0,0.0,0.0,0
1615421404.632,0,1615421404,631999969,/vehicle_frd,0,0,32.88574288437923,-117.11820500731773,150.56793525282208,0.0,0.0,0.0,0.0,0.0,0.0,0.0,0.0,0.0,0
1615421404.652,0,1615421404,651999950,/vehicle_frd,0,0,32.88574288437874,-117.11820500731864,150.5679351528221,0.0,0.0,0.0,0.0,0.0,0.0,0.0,0.0,0.0,0
1615421404.672,0,1615421404,671999931,/vehicle_frd,0,0,32.88574288437874,-117.11820500731864,150.5679351528221,0.0,0.0,0.0,0.0,0.0,0.0,0.0,0.0,0.0,0
1615421404.692,0,1615421404,691999912,/vehicle_frd,0,0,32.88574288437874,-117.11820500731864,150.5679351528221,0.0,0.0,0.0,0.0,0.0,0.0,0.0,0.0,0.0,0
1615421404.712,0,1615421404,711999893,/vehicle_frd,0,0,32.88574288437874,-117.11820500731864,150.5679351528221,0.0,0.0,0.0,0.0,0.0,0.0,0.0,0.0,0.0,0
1615421404.732,0,1615421404,732000113,/vehicle_frd,0,0,32.88574288437874,-117.11820500731864,150.5679351528221,0.0,0.0,0.0,0.0,0.0,0.0,0.0,0.0,0.0,0
1615421404.752,0,1615421404,752000093,/vehicle_frd,0,0,32.88574288437874,-117.11820500731864,150.5679351528221,0.0,0.0,0.0,0.0,0.0,0.0,0.0,0.0,0.0,0
1615421404.772,0,1615421404,772000074,/vehicle_frd,0,0,32.88574288437874,-117.11820500731864,150.5679351528221,0.0,0.0,0.0,0.0,0.0,0.0,0.0,0.0,0.0,0
1615421404.792,0,1615421404,792000055,/vehicle_frd,0,0,32.88574288437874,-117.11820500731864,150.5679351528221,0.0,0.0,0.0,0.0,0.0,0.0,0.0,0.0,0.0,0
1615421404.812,0,1615421404,812000036,/vehicle_frd,0,0,32.88574288437874,-117.11820500731864,150.5679351528221,0.0,0.0,0.0,0.0,0.0,0.0,0.0,0.0,0.0,0
1615421404.832,0,1615421404,832000017,/vehicle_frd,0,0,32.88574288437874,-117.11820500731864,150.5679351528221,0.0,0.0,0.0,0.0,0.0,0.0,0.0,0.0,0.0,0
1615421404.852,0,1615421404,851999998,/vehicle_frd,0,0,32.88574288437805,-117.11820500731932,150.56793505282207,0.0,0.0,0.0,0.0,0.0,0.0,0.0,0.0,0.0,0
1615421404.872,0,1615421404,871999979,/vehicle_frd,0,0,32.88574288437805,-117.11820500731932,150.56793505282207,0.0,0.0,0.0,0.0,0.0,0.0,0.0,0.0,0.0,0
1615421404.892,0,1615421404,891999960,/vehicle_frd,0,0,32.88574288437805,-117.11820500731932,150.56793505282207,0.0,0.0,0.0,0.0,0.0,0.0,0.0,0.0,0.0,0
1615421404.912,0,1615421404,911999941,/vehicle_frd,0,0,32.88574288437805,-117.11820500731932,150.56793505282207,0.0,0.0,0.0,0.0,0.0,0.0,0.0,0.0,0.0,0
1615421404.932,0,1615421404,931999922,/vehicle_frd,0,0,32.88574288437805,-117.11820500731932,150.56793505282207,0.0,0.0,0.0,0.0,0.0,0.0,0.0,0.0,0.0,0
1615421404.952,0,1615421404,951999903,/vehicle_frd,0,0,32.88574288437805,-117.11820500731932,150.56793505282207,0.0,0.0,0.0,0.0,0.0,0.0,0.0,0.0,0.0,0
1615421404.972,0,1615421404,971999884,/vehicle_frd,0,0,32.88574288437805,-117.11820500731932,150.56793505282207,0.0,0.0,0.0,0.0,0.0,0.0,0.0,0.0,0.0,0
1615421404.992,0,1615421404,992000103,/vehicle_frd,0,0,32.88574288437805,-117.11820500731932,150.56793505282207,0.0,0.0,0.0,0.0,0.0,0.0,0.0,0.0,0.0,0
1615421405.012,0,1615421405,12000084,/vehicle_frd,0,0,32.88574288437805,-117.11820500731932,150.56793505282207,0.0,0.0,0.0,0.0,0.0,0.0,0.0,0.0,0.0,0
1615421405.032,0,1615421405,32000065,/vehicle_frd,0,0,32.885742884377365,-117.11820500731999,150.5679349528221,0.0,0.0,0.0,0.0,0.0,0.0,0.0,0.0,0.0,0
1615421405.052,0,1615421405,52000046,/vehicle_frd,0,0,32.885742884377365,-117.11820500731999,150.5679349528221,0.0,0.0,0.0,0.0,0.0,0.0,0.0,0.0,0.0,0
1615421405.072,0,1615421405,72000027,/vehicle_frd,0,0,32.885742884377365,-117.11820500731999,150.5679349528221,0.0,0.0,0.0,0.0,0.0,0.0,0.0,0.0,0.0,0
1615421405.092,0,1615421405,92000008,/vehicle_frd,0,0,32.885742884377365,-117.11820500731999,150.5679349528221,0.0,0.0,0.0,0.0,0.0,0.0,0.0,0.0,0.0,0
1615421405.112,0,1615421405,111999989,/vehicle_frd,0,0,32.885742884377365,-117.11820500731999,150.5679349528221,0.0,0.0,0.0,0.0,0.0,0.0,0.0,0.0,0.0,0
1615421405.132,0,1615421405,131999969,/vehicle_frd,0,0,32.885742884377365,-117.11820500731999,150.5679349528221,0.0,0.0,0.0,0.0,0.0,0.0,0.0,0.0,0.0,0
1615421405.152,0,1615421405,151999950,/vehicle_frd,0,0,32.885742884377365,-117.11820500731999,150.5679349528221,0.0,0.0,0.0,0.0,0.0,0.0,0.0,0.0,0.0,0
1615421405.172,0,1615421405,171999931,/vehicle_frd,0,0,32.885742884377365,-117.11820500731999,150.5679349528221,0.0,0.0,0.0,0.0,0.0,0.0,0.0,0.0,0.0,0
1615421405.192,0,1615421405,191999912,/vehicle_frd,0,0,32.885742884377365,-117.11820500731999,150.5679349528221,0.0,0.0,0.0,0.0,0.0,0.0,0.0,0.0,0.0,0
1615421405.212,0,1615421405,211999893,/vehicle_frd,0,0,32.885742884377365,-117.11820500731999,150.5679349528221,0.0,0.0,0.0,0.0,0.0,0.0,0.0,0.0,0.0,0
1615421405.232,0,1615421405,232000113,/vehicle_frd,0,0,32.885742884377365,-117.11820500731999,150.5679349528221,0.0,0.0,0.0,0.0,0.0,0.0,0.0,0.0,0.0,0
1615421405.252,0,1615421405,252000093,/vehicle_frd,0,0,32.88574288437667,-117.11820500732067,150.56793485282208,0.0,0.0,0.0,0.0,0.0,0.0,0.0,0.0,0.0,0
1615421405.272,0,1615421405,272000074,/vehicle_frd,0,0,32.88574288437667,-117.11820500732067,150.56793485282208,0.0,0.0,0.0,0.0,0.0,0.0,0.0,0.0,0.0,0
1615421405.292,0,1615421405,292000055,/vehicle_frd,0,0,32.88574288437667,-117.11820500732067,150.56793485282208,0.0,0.0,0.0,0.0,0.0,0.0,0.0,0.0,0.0,0
1615421405.312,0,1615421405,312000036,/vehicle_frd,0,0,32.88574288437667,-117.11820500732067,150.56793485282208,0.0,0.0,0.0,0.0,0.0,0.0,0.0,0.0,0.0,0
1615421405.332,0,1615421405,332000017,/vehicle_frd,0,0,32.88574288437667,-117.11820500732067,150.56793485282208,0.0,0.0,0.0,0.0,0.0,0.0,0.0,0.0,0.0,0
1615421405.352,0,1615421405,351999998,/vehicle_frd,0,0,32.88574288437667,-117.11820500732067,150.56793485282208,0.0,0.0,0.0,0.0,0.0,0.0,0.0,0.0,0.0,0
1615421405.372,0,1615421405,371999979,/vehicle_frd,0,0,32.88574288437667,-117.11820500732067,150.56793485282208,0.0,0.0,0.0,0.0,0.0,0.0,0.0,0.0,0.0,0
1615421405.392,0,1615421405,391999960,/vehicle_frd,0,0,32.88574288437667,-117.11820500732067,150.56793485282208,0.0,0.0,0.0,0.0,0.0,0.0,0.0,0.0,0.0,0
1615421405.412,0,1615421405,411999941,/vehicle_frd,0,0,32.88574288437667,-117.11820500732067,150.56793485282208,0.0,0.0,0.0,0.0,0.0,0.0,0.0,0.0,0.0,0
1615421405.432,0,1615421405,431999922,/vehicle_frd,0,0,32.88574288437667,-117.11820500732067,150.56793485282208,0.0,0.0,0.0,0.0,0.0,0.0,0.0,0.0,0.0,0
1615421405.452,0,1615421405,451999903,/vehicle_frd,0,0,32.88574288437594,-117.11820500732131,150.56793475282208,0.0,0.0,0.0,0.0,0.0,0.0,0.0,0.0,0.0,0
1615421405.472,0,1615421405,471999884,/vehicle_frd,0,0,32.88574288437594,-117.11820500732131,150.56793475282208,0.0,0.0,0.0,0.0,0.0,0.0,0.0,0.0,0.0,0
1615421405.492,0,1615421405,492000103,/vehicle_frd,0,0,32.88574288437594,-117.11820500732131,150.56793475282208,0.0,0.0,0.0,0.0,0.0,0.0,0.0,0.0,0.0,0
1615421405.512,0,1615421405,512000084,/vehicle_frd,0,0,32.88574288437594,-117.11820500732131,150.56793475282208,0.0,0.0,0.0,0.0,0.0,0.0,0.0,0.0,0.0,0
1615421405.532,0,1615421405,532000065,/vehicle_frd,0,0,32.88574288437594,-117.11820500732131,150.56793475282208,0.0,0.0,0.0,0.0,0.0,0.0,0.0,0.0,0.0,0
1615421405.552,0,1615421405,552000046,/vehicle_frd,0,0,32.88574288437594,-117.11820500732131,150.56793475282208,0.0,0.0,0.0,0.0,0.0,0.0,0.0,0.0,0.0,0
1615421405.572,0,1615421405,572000027,/vehicle_frd,0,0,32.88574288437594,-117.11820500732131,150.56793475282208,0.0,0.0,0.0,0.0,0.0,0.0,0.0,0.0,0.0,0
1615421405.592,0,1615421405,592000008,/vehicle_frd,0,0,32.88574288437594,-117.11820500732131,150.56793475282208,0.0,0.0,0.0,0.0,0.0,0.0,0.0,0.0,0.0,0
1615421405.612,0,1615421405,611999989,/vehicle_frd,0,0,32.88574288437594,-117.11820500732131,150.56793475282208,0.0,0.0,0.0,0.0,0.0,0.0,0.0,0.0,0.0,0
1615421405.632,0,1615421405,631999969,/vehicle_frd,0,0,32.88574288437594,-117.11820500732131,150.56793475282208,0.0,0.0,0.0,0.0,0.0,0.0,0.0,0.0,0.0,0
1615421405.652,0,1615421405,651999950,/vehicle_frd,0,0,32.88574288437521,-117.11820500732195,150.5679346528221,0.0,0.0,0.0,0.0,0.0,0.0,0.0,0.0,0.0,0
1615421405.672,0,1615421405,671999931,/vehicle_frd,0,0,32.88574288437521,-117.11820500732195,150.5679346528221,0.0,0.0,0.0,0.0,0.0,0.0,0.0,0.0,0.0,0
1615421405.692,0,1615421405,691999912,/vehicle_frd,0,0,32.88574288437521,-117.11820500732195,150.5679346528221,0.0,0.0,0.0,0.0,0.0,0.0,0.0,0.0,0.0,0
1615421405.712,0,1615421405,711999893,/vehicle_frd,0,0,32.88574288437521,-117.11820500732195,150.5679346528221,0.0,0.0,0.0,0.0,0.0,0.0,0.0,0.0,0.0,0
1615421405.732,0,1615421405,732000113,/vehicle_frd,0,0,32.88574288437521,-117.11820500732195,150.5679346528221,0.0,0.0,0.0,0.0,0.0,0.0,0.0,0.0,0.0,0
1615421405.752,0,1615421405,752000093,/vehicle_frd,0,0,32.88574288437521,-117.11820500732195,150.5679346528221,0.0,0.0,0.0,0.0,0.0,0.0,0.0,0.0,0.0,0
1615421405.772,0,1615421405,772000074,/vehicle_frd,0,0,32.88574288437521,-117.11820500732195,150.5679346528221,0.0,0.0,0.0,0.0,0.0,0.0,0.0,0.0,0.0,0
1615421405.792,0,1615421405,792000055,/vehicle_frd,0,0,32.88574288437521,-117.11820500732195,150.5679346528221,0.0,0.0,0.0,0.0,0.0,0.0,0.0,0.0,0.0,0
1615421405.812,0,1615421405,812000036,/vehicle_frd,0,0,32.88574288437521,-117.11820500732195,150.5679346528221,0.0,0.0,0.0,0.0,0.0,0.0,0.0,0.0,0.0,0
1615421405.832,0,1615421405,832000017,/vehicle_frd,0,0,32.88574288437521,-117.11820500732195,150.5679346528221,0.0,0.0,0.0,0.0,0.0,0.0,0.0,0.0,0.0,0
1615421405.852,0,1615421405,851999998,/vehicle_frd,0,0,32.88574288437449,-117.11820500732259,150.56793455282207,0.0,0.0,0.0,0.0,0.0,0.0,0.0,0.0,0.0,0
1615421405.872,0,1615421405,871999979,/vehicle_frd,0,0,32.88574288437449,-117.11820500732259,150.56793455282207,0.0,0.0,0.0,0.0,0.0,0.0,0.0,0.0,0.0,0
1615421405.892,0,1615421405,891999960,/vehicle_frd,0,0,32.88574288437449,-117.11820500732259,150.56793455282207,0.0,0.0,0.0,0.0,0.0,0.0,0.0,0.0,0.0,0
1615421405.912,0,1615421405,911999941,/vehicle_frd,0,0,32.88574288437449,-117.11820500732259,150.56793455282207,0.0,0.0,0.0,0.0,0.0,0.0,0.0,0.0,0.0,0
1615421405.932,0,1615421405,931999922,/vehicle_frd,0,0,32.88574288437449,-117.11820500732259,150.56793455282207,0.0,0.0,0.0,0.0,0.0,0.0,0.0,0.0,0.0,0
1615421405.952,0,1615421405,951999903,/vehicle_frd,0,0,32.88574288437449,-117.11820500732259,150.56793455282207,0.0,0.0,0.0,0.0,0.0,0.0,0.0,0.0,0.0,0
1615421405.972,0,1615421405,971999884,/vehicle_frd,0,0,32.88574288437449,-117.11820500732259,150.56793455282207,0.0,0.0,0.0,0.0,0.0,0.0,0.0,0.0,0.0,0
1615421405.992,0,1615421405,992000103,/vehicle_frd,0,0,32.88574288437449,-117.11820500732259,150.56793455282207,0.0,0.0,0.0,0.0,0.0,0.0,0.0,0.0,0.0,0
1615421406.012,0,1615421406,12000084,/vehicle_frd,0,0,32.88574288437449,-117.11820500732259,150.56793455282207,0.0,0.0,0.0,0.0,0.0,0.0,0.0,0.0,0.0,0
1615421406.032,0,1615421406,32000065,/vehicle_frd,0,0,32.88574288437449,-117.11820500732259,150.56793455282207,0.0,0.0,0.0,0.0,0.0,0.0,0.0,0.0,0.0,0
1615421406.052,0,1615421406,52000046,/vehicle_frd,0,0,32.885742884373634,-117.11820500732291,150.5679344528221,0.0,0.0,0.0,0.0,0.0,0.0,0.0,0.0,0.0,0
1615421406.072,0,1615421406,72000027,/vehicle_frd,0,0,32.885742884373634,-117.11820500732291,150.5679344528221,0.0,0.0,0.0,0.0,0.0,0.0,0.0,0.0,0.0,0
1615421406.092,0,1615421406,92000008,/vehicle_frd,0,0,32.885742884373634,-117.11820500732291,150.5679344528221,0.0,0.0,0.0,0.0,0.0,0.0,0.0,0.0,0.0,0
1615421406.112,0,1615421406,111999989,/vehicle_frd,0,0,32.885742884373634,-117.11820500732291,150.5679344528221,0.0,0.0,0.0,0.0,0.0,0.0,0.0,0.0,0.0,0
1615421406.132,0,1615421406,131999969,/vehicle_frd,0,0,32.885742884373634,-117.11820500732291,150.5679344528221,0.0,0.0,0.0,0.0,0.0,0.0,0.0,0.0,0.0,0
1615421406.152,0,1615421406,151999950,/vehicle_frd,0,0,32.885742884373634,-117.11820500732291,150.5679344528221,0.0,0.0,0.0,0.0,0.0,0.0,0.0,0.0,0.0,0
1615421406.172,0,1615421406,171999931,/vehicle_frd,0,0,32.885742884373634,-117.11820500732291,150.5679344528221,0.0,0.0,0.0,0.0,0.0,0.0,0.0,0.0,0.0,0
1615421406.192,0,1615421406,191999912,/vehicle_frd,0,0,32.885742884373634,-117.11820500732291,150.5679344528221,0.0,0.0,0.0,0.0,0.0,0.0,0.0,0.0,0.0,0
1615421406.212,0,1615421406,211999893,/vehicle_frd,0,0,32.885742884373634,-117.11820500732291,150.5679344528221,0.0,0.0,0.0,0.0,0.0,0.0,0.0,0.0,0.0,0
1615421406.232,0,1615421406,232000113,/vehicle_frd,0,0,32.885742884373634,-117.11820500732291,150.5679344528221,0.0,0.0,0.0,0.0,0.0,0.0,0.0,0.0,0.0,0
1615421406.252,0,1615421406,252000093,/vehicle_frd,0,0,32.88574288437276,-117.11820500732324,150.56793435282208,0.0,0.0,0.0,0.0,0.0,0.0,0.0,0.0,0.0,0
1615421406.272,0,1615421406,272000074,/vehicle_frd,0,0,32.88574288437276,-117.11820500732324,150.56793435282208,0.0,0.0,0.0,0.0,0.0,0.0,0.0,0.0,0.0,0
1615421406.292,0,1615421406,292000055,/vehicle_frd,0,0,32.88574288437276,-117.11820500732324,150.56793435282208,0.0,0.0,0.0,0.0,0.0,0.0,0.0,0.0,0.0,0
1615421406.312,0,1615421406,312000036,/vehicle_frd,0,0,32.88574288437276,-117.11820500732324,150.56793435282208,0.0,0.0,0.0,0.0,0.0,0.0,0.0,0.0,0.0,0
1615421406.332,0,1615421406,332000017,/vehicle_frd,0,0,32.88574288437276,-117.11820500732324,150.56793435282208,0.0,0.0,0.0,0.0,0.0,0.0,0.0,0.0,0.0,0
1615421406.352,0,1615421406,351999998,/vehicle_frd,0,0,32.88574288437276,-117.11820500732324,150.56793435282208,0.0,0.0,0.0,0.0,0.0,0.0,0.0,0.0,0.0,0
1615421406.372,0,1615421406,371999979,/vehicle_frd,0,0,32.88574288437276,-117.11820500732324,150.56793435282208,0.0,0.0,0.0,0.0,0.0,0.0,0.0,0.0,0.0,0
1615421406.392,0,1615421406,391999960,/vehicle_frd,0,0,32.88574288437276,-117.11820500732324,150.56793435282208,0.0,0.0,0.0,0.0,0.0,0.0,0.0,0.0,0.0,0
1615421406.412,0,1615421406,411999941,/vehicle_frd,0,0,32.88574288437276,-117.11820500732324,150.56793435282208,0.0,0.0,0.0,0.0,0.0,0.0,0.0,0.0,0.0,0
1615421406.432,0,1615421406,431999922,/vehicle_frd,0,0,32.88574288437276,-117.11820500732324,150.56793435282208,0.0,0.0,0.0,0.0,0.0,0.0,0.0,0.0,0.0,0
1615421406.452,0,1615421406,451999903,/vehicle_frd,0,0,32.88574288437191,-117.11820500732357,150.56793425282208,0.0,0.0,0.0,0.0,0.0,0.0,0.0,0.0,0.0,0
1615421406.472,0,1615421406,471999884,/vehicle_frd,0,0,32.88574288437191,-117.11820500732357,150.56793425282208,0.0,0.0,0.0,0.0,0.0,0.0,0.0,0.0,0.0,0
1615421406.492,0,1615421406,492000103,/vehicle_frd,0,0,32.88574288437191,-117.11820500732357,150.56793425282208,0.0,0.0,0.0,0.0,0.0,0.0,0.0,0.0,0.0,0
1615421406.512,0,1615421406,512000084,/vehicle_frd,0,0,32.88574288437191,-117.11820500732357,150.56793425282208,0.0,0.0,0.0,0.0,0.0,0.0,0.0,0.0,0.0,0
1615421406.532,0,1615421406,532000065,/vehicle_frd,0,0,32.88574288437191,-117.11820500732357,150.56793425282208,0.0,0.0,0.0,0.0,0.0,0.0,0.0,0.0,0.0,0
1615421406.552,0,1615421406,552000046,/vehicle_frd,0,0,32.88574288437191,-117.11820500732357,150.56793425282208,0.0,0.0,0.0,0.0,0.0,0.0,0.0,0.0,0.0,0
1615421406.572,0,1615421406,572000027,/vehicle_frd,0,0,32.88574288437191,-117.11820500732357,150.56793425282208,0.0,0.0,0.0,0.0,0.0,0.0,0.0,0.0,0.0,0
1615421406.592,0,1615421406,592000008,/vehicle_frd,0,0,32.88574288437191,-117.11820500732357,150.56793425282208,0.0,0.0,0.0,0.0,0.0,0.0,0.0,0.0,0.0,0
1615421406.612,0,1615421406,611999989,/vehicle_frd,0,0,32.88574288437191,-117.11820500732357,150.56793425282208,0.0,0.0,0.0,0.0,0.0,0.0,0.0,0.0,0.0,0
1615421406.632,0,1615421406,631999969,/vehicle_frd,0,0,32.88574288437191,-117.11820500732357,150.56793425282208,0.0,0.0,0.0,0.0,0.0,0.0,0.0,0.0,0.0,0
1615421406.652,0,1615421406,651999950,/vehicle_frd,0,0,32.885742884371034,-117.11820500732378,150.5679341528221,0.0,0.0,0.0,0.0,0.0,0.0,0.0,0.0,0.0,0
1615421406.672,0,1615421406,671999931,/vehicle_frd,0,0,32.885742884371034,-117.11820500732378,150.5679341528221,0.0,0.0,0.0,0.0,0.0,0.0,0.0,0.0,0.0,0
1615421406.692,0,1615421406,691999912,/vehicle_frd,0,0,32.885742884371034,-117.11820500732378,150.5679341528221,0.0,0.0,0.0,0.0,0.0,0.0,0.0,0.0,0.0,0
1615421406.712,0,1615421406,711999893,/vehicle_frd,0,0,32.885742884371034,-117.11820500732378,150.5679341528221,0.0,0.0,0.0,0.0,0.0,0.0,0.0,0.0,0.0,0
1615421406.732,0,1615421406,732000113,/vehicle_frd,0,0,32.885742884371034,-117.11820500732378,150.5679341528221,0.0,0.0,0.0,0.0,0.0,0.0,0.0,0.0,0.0,0
1615421406.752,0,1615421406,752000093,/vehicle_frd,0,0,32.885742884371034,-117.11820500732378,150.5679341528221,0.0,0.0,0.0,0.0,0.0,0.0,0.0,0.0,0.0,0
1615421406.772,0,1615421406,772000074,/vehicle_frd,0,0,32.885742884371034,-117.11820500732378,150.5679341528221,0.0,0.0,0.0,0.0,0.0,0.0,0.0,0.0,0.0,0
1615421406.792,0,1615421406,792000055,/vehicle_frd,0,0,32.885742884371034,-117.11820500732378,150.5679341528221,0.0,0.0,0.0,0.0,0.0,0.0,0.0,0.0,0.0,0
1615421406.812,0,1615421406,812000036,/vehicle_frd,0,0,32.885742884371034,-117.11820500732378,150.5679341528221,0.0,0.0,0.0,0.0,0.0,0.0,0.0,0.0,0.0,0
1615421406.832,0,1615421406,832000017,/vehicle_frd,0,0,32.885742884371034,-117.11820500732378,150.5679341528221,0.0,0.0,0.0,0.0,0.0,0.0,0.0,0.0,0.0,0
1615421406.852,0,1615421406,851999998,/vehicle_frd,0,0,32.885742884370146,-117.11820500732401,150.56793405282207,0.0,0.0,0.0,0.0,0.0,0.0,0.0,0.0,0.0,0
1615421406.872,0,1615421406,871999979,/vehicle_frd,0,0,32.885742884370146,-117.11820500732401,150.56793405282207,0.0,0.0,0.0,0.0,0.0,0.0,0.0,0.0,0.0,0
1615421406.892,0,1615421406,891999960,/vehicle_frd,0,0,32.885742884370146,-117.11820500732401,150.56793405282207,0.0,0.0,0.0,0.0,0.0,0.0,0.0,0.0,0.0,0
1615421406.912,0,1615421406,911999941,/vehicle_frd,0,0,32.885742884370146,-117.11820500732401,150.56793405282207,0.0,0.0,0.0,0.0,0.0,0.0,0.0,0.0,0.0,0
1615421406.932,0,1615421406,931999922,/vehicle_frd,0,0,32.885742884370146,-117.11820500732401,150.56793405282207,0.0,0.0,0.0,0.0,0.0,0.0,0.0,0.0,0.0,0
1615421406.952,0,1615421406,951999903,/vehicle_frd,0,0,32.885742884370146,-117.11820500732401,150.56793405282207,0.0,0.0,0.0,0.0,0.0,0.0,0.0,0.0,0.0,0
1615421406.972,0,1615421406,971999884,/vehicle_frd,0,0,32.885742884370146,-117.11820500732401,150.56793405282207,0.0,0.0,0.0,0.0,0.0,0.0,0.0,0.0,0.0,0
1615421406.992,0,1615421406,992000103,/vehicle_frd,0,0,32.885742884370146,-117.11820500732401,150.56793405282207,0.0,0.0,0.0,0.0,0.0,0.0,0.0,0.0,0.0,0
1615421407.012,0,1615421407,12000084,/vehicle_frd,0,0,32.885742884370146,-117.11820500732401,150.56793405282207,0.0,0.0,0.0,0.0,0.0,0.0,0.0,0.0,0.0,0
1615421407.032,0,1615421407,32000065,/vehicle_frd,0,0,32.885742884370146,-117.11820500732401,150.56793405282207,0.0,0.0,0.0,0.0,0.0,0.0,0.0,0.0,0.0,0
1615421407.052,0,1615421407,52000046,/vehicle_frd,0,0,32.88574288436926,-117.11820500732424,150.56793395282207,0.0,0.0,0.0,0.0,0.0,0.0,0.0,0.0,0.0,0
1615421407.072,0,1615421407,72000027,/vehicle_frd,0,0,32.88574288436926,-117.11820500732424,150.56793395282207,0.0,0.0,0.0,0.0,0.0,0.0,0.0,0.0,0.0,0
1615421407.092,0,1615421407,92000008,/vehicle_frd,0,0,32.88574288436926,-117.11820500732424,150.56793395282207,0.0,0.0,0.0,0.0,0.0,0.0,0.0,0.0,0.0,0
1615421407.112,0,1615421407,111999989,/vehicle_frd,0,0,32.88574288436926,-117.11820500732424,150.56793395282207,0.0,0.0,0.0,0.0,0.0,0.0,0.0,0.0,0.0,0
1615421407.132,0,1615421407,131999969,/vehicle_frd,0,0,32.88574288436926,-117.11820500732424,150.56793395282207,0.0,0.0,0.0,0.0,0.0,0.0,0.0,0.0,0.0,0
1615421407.152,0,1615421407,151999950,/vehicle_frd,0,0,32.88574288436926,-117.11820500732424,150.56793395282207,0.0,0.0,0.0,0.0,0.0,0.0,0.0,0.0,0.0,0
1615421407.172,0,1615421407,171999931,/vehicle_frd,0,0,32.88574288436926,-117.11820500732424,150.56793395282207,0.0,0.0,0.0,0.0,0.0,0.0,0.0,0.0,0.0,0
1615421407.192,0,1615421407,191999912,/vehicle_frd,0,0,32.88574288436926,-117.11820500732424,150.56793395282207,0.0,0.0,0.0,0.0,0.0,0.0,0.0,0.0,0.0,0
1615421407.212,0,1615421407,211999893,/vehicle_frd,0,0,32.88574288436926,-117.11820500732424,150.56793395282207,0.0,0.0,0.0,0.0,0.0,0.0,0.0,0.0,0.0,0
1615421407.232,0,1615421407,232000113,/vehicle_frd,0,0,32.88574288436926,-117.11820500732424,150.56793395282207,0.0,0.0,0.0,0.0,0.0,0.0,0.0,0.0,0.0,0
1615421407.252,0,1615421407,252000093,/vehicle_frd,0,0,32.885742884368376,-117.11820500732442,150.56793385282208,0.0,0.0,0.0,0.0,0.0,0.0,0.0,0.0,0.0,0
1615421407.272,0,1615421407,272000074,/vehicle_frd,0,0,32.885742884368376,-117.11820500732442,150.56793385282208,0.0,0.0,0.0,0.0,0.0,0.0,0.0,0.0,0.0,0
1615421407.292,0,1615421407,292000055,/vehicle_frd,0,0,32.885742884368376,-117.11820500732442,150.56793385282208,0.0,0.0,0.0,0.0,0.0,0.0,0.0,0.0,0.0,0
1615421407.312,0,1615421407,312000036,/vehicle_frd,0,0,32.885742884368376,-117.11820500732442,150.56793385282208,0.0,0.0,0.0,0.0,0.0,0.0,0.0,0.0,0.0,0
1615421407.332,0,1615421407,332000017,/vehicle_frd,0,0,32.885742884368376,-117.11820500732442,150.56793385282208,0.0,0.0,0.0,0.0,0.0,0.0,0.0,0.0,0.0,0
1615421407.352,0,1615421407,351999998,/vehicle_frd,0,0,32.885742884368376,-117.11820500732442,150.56793385282208,0.0,0.0,0.0,0.0,0.0,0.0,0.0,0.0,0.0,0
1615421407.372,0,1615421407,371999979,/vehicle_frd,0,0,32.885742884368376,-117.11820500732442,150.56793385282208,0.0,0.0,0.0,0.0,0.0,0.0,0.0,0.0,0.0,0
1615421407.392,0,1615421407,391999960,/vehicle_frd,0,0,32.885742884368376,-117.11820500732442,150.56793385282208,0.0,0.0,0.0,0.0,0.0,0.0,0.0,0.0,0.0,0
1615421407.412,0,1615421407,411999941,/vehicle_frd,0,0,32.885742884368376,-117.11820500732442,150.56793385282208,0.0,0.0,0.0,0.0,0.0,0.0,0.0,0.0,0.0,0
1615421407.432,0,1615421407,431999922,/vehicle_frd,0,0,32.885742884368376,-117.11820500732442,150.56793385282208,0.0,0.0,0.0,0.0,0.0,0.0,0.0,0.0,0.0,0
1615421407.452,0,1615421407,451999903,/vehicle_frd,0,0,32.88574288436749,-117.1182050073246,150.56793375282209,0.0,0.0,0.0,0.0,0.0,0.0,0.0,0.0,0.0,0
1615421407.472,0,1615421407,471999884,/vehicle_frd,0,0,32.88574288436749,-117.1182050073246,150.56793375282209,0.0,0.0,0.0,0.0,0.0,0.0,0.0,0.0,0.0,0
1615421407.492,0,1615421407,492000103,/vehicle_frd,0,0,32.88574288436749,-117.1182050073246,150.56793375282209,0.0,0.0,0.0,0.0,0.0,0.0,0.0,0.0,0.0,0
1615421407.512,0,1615421407,512000084,/vehicle_frd,0,0,32.88574288436749,-117.1182050073246,150.56793375282209,0.0,0.0,0.0,0.0,0.0,0.0,0.0,0.0,0.0,0
1615421407.532,0,1615421407,532000065,/vehicle_frd,0,0,32.88574288436749,-117.1182050073246,150.56793375282209,0.0,0.0,0.0,0.0,0.0,0.0,0.0,0.0,0.0,0
1615421407.552,0,1615421407,552000046,/vehicle_frd,0,0,32.88574288436749,-117.1182050073246,150.56793375282209,0.0,0.0,0.0,0.0,0.0,0.0,0.0,0.0,0.0,0
1615421407.572,0,1615421407,572000027,/vehicle_frd,0,0,32.88574288436749,-117.1182050073246,150.56793375282209,0.0,0.0,0.0,0.0,0.0,0.0,0.0,0.0,0.0,0
1615421407.592,0,1615421407,592000008,/vehicle_frd,0,0,32.88574288436749,-117.1182050073246,150.56793375282209,0.0,0.0,0.0,0.0,0.0,0.0,0.0,0.0,0.0,0
1615421407.612,0,1615421407,611999989,/vehicle_frd,0,0,32.88574288436749,-117.1182050073246,150.56793375282209,0.0,0.0,0.0,0.0,0.0,0.0,0.0,0.0,0.0,0
1615421407.632,0,1615421407,631999969,/vehicle_frd,0,0,32.88574288436749,-117.1182050073246,150.56793375282209,0.0,0.0,0.0,0.0,0.0,0.0,0.0,0.0,0.0,0
1615421407.652,0,1615421407,651999950,/vehicle_frd,0,0,32.88574288436659,-117.11820500732479,150.5679336528221,0.0,0.0,0.0,0.0,0.0,0.0,0.0,0.0,0.0,0
1615421407.672,0,1615421407,671999931,/vehicle_frd,0,0,32.88574288436659,-117.11820500732479,150.5679336528221,0.0,0.0,0.0,0.0,0.0,0.0,0.0,0.0,0.0,0
1615421407.692,0,1615421407,691999912,/vehicle_frd,0,0,32.88574288436659,-117.11820500732479,150.5679336528221,0.0,0.0,0.0,0.0,0.0,0.0,0.0,0.0,0.0,0
1615421407.712,0,1615421407,711999893,/vehicle_frd,0,0,32.88574288436659,-117.11820500732479,150.5679336528221,0.0,0.0,0.0,0.0,0.0,0.0,0.0,0.0,0.0,0
1615421407.732,0,1615421407,732000113,/vehicle_frd,0,0,32.88574288436659,-117.11820500732479,150.5679336528221,0.0,0.0,0.0,0.0,0.0,0.0,0.0,0.0,0.0,0
1615421407.752,0,1615421407,752000093,/vehicle_frd,0,0,32.88574288436659,-117.11820500732479,150.5679336528221,0.0,0.0,0.0,0.0,0.0,0.0,0.0,0.0,0.0,0
1615421407.772,0,1615421407,772000074,/vehicle_frd,0,0,32.88574288436659,-117.11820500732479,150.5679336528221,0.0,0.0,0.0,0.0,0.0,0.0,0.0,0.0,0.0,0
1615421407.792,0,1615421407,792000055,/vehicle_frd,0,0,32.88574288436659,-117.11820500732479,150.5679336528221,0.0,0.0,0.0,0.0,0.0,0.0,0.0,0.0,0.0,0
1615421407.812,0,1615421407,812000036,/vehicle_frd,0,0,32.88574288436659,-117.11820500732479,150.5679336528221,0.0,0.0,0.0,0.0,0.0,0.0,0.0,0.0,0.0,0
1615421407.832,0,1615421407,832000017,/vehicle_frd,0,0,32.88574288436659,-117.11820500732479,150.5679336528221,0.0,0.0,0.0,0.0,0.0,0.0,0.0,0.0,0.0,0
1615421407.852,0,1615421407,851999998,/vehicle_frd,0,0,32.88574288436573,-117.1182050073251,150.56793355282207,0.0,0.0,0.0,0.0,0.0,0.0,0.0,0.0,0.0,0
1615421407.872,0,1615421407,871999979,/vehicle_frd,0,0,32.88574288436573,-117.1182050073251,150.56793355282207,0.0,0.0,0.0,0.0,0.0,0.0,0.0,0.0,0.0,0
1615421407.892,0,1615421407,891999960,/vehicle_frd,0,0,32.88574288436573,-117.1182050073251,150.56793355282207,0.0,0.0,0.0,0.0,0.0,0.0,0.0,0.0,0.0,0
1615421407.912,0,1615421407,911999941,/vehicle_frd,0,0,32.88574288436573,-117.1182050073251,150.56793355282207,0.0,0.0,0.0,0.0,0.0,0.0,0.0,0.0,0.0,0
