Time,header.seq,header.stamp.secs,header.stamp.nsecs,header.frame_id,orientation.x,orientation.y,orientation.z,orientation.w,orientation_covariance_0,orientation_covariance_1,orientation_covariance_2,orientation_covariance_3,orientation_covariance_4,orientation_covariance_5,orientation_covariance_6,orientation_covariance_7,orientation_covariance_8,angular_velocity.x,angular_velocity.y,angular_velocity.z,angular_velocity_covariance_0,angular_velocity_covariance_1,angular_velocity_covariance_2,angular_velocity_covariance_3,angular_velocity_covariance_4,angular_velocity_covariance_5,angular_velocity_covariance_6,angular_velocity_covariance_7,angular_velocity_covariance_8,linear_acceleration.x,linear_acceleration.y,linear_acceleration.z,linear_acceleration_covariance_0,linear_acceleration_covariance_1,linear_acceleration_covariance_2,linear_acceleration_covariance_3,linear_acceleration_covariance_4,linear_acceleration_covariance_5,linear_acceleration_covariance_6,linear_acceleration_covariance_7,linear_acceleration_covariance_8
1615407366.002,0,1615407366,2000093,,0.0013547641994003825,-0.002026617163464311,-0.749112970668371,0.6624377816921715,-1.0,0.0,0.0,0.0,0.0,0.0,0.0,0.0,0.0,-0.00025635211880098717,-0.00019191387791744563,-0.0003969741095584978,-1.0,0.0,0.0,0.0,0.0,0.0,0.0,0.0,0.0,0.0,0.0,0.0,-1.0,0.0,0.0,0.0,0.0,0.0,0.0,0.0,0.0
1615407366.022,0,1615407366,22000074,,0.0013567405360289755,-0.0020325285826340517,-0.7491129632457001,0.6624377679298827,-1.0,0.0,0.0,0.0,0.0,0.0,0.0,0.0,0.0,2.7934205886259485e-05,-0.00022098344779152576,-0.0003729151411696935,-1.0,0.0,0.0,0.0,0.0,0.0,0.0,0.0,0.0,0.0,0.0,0.0,-1.0,0.0,0.0,0.0,0.0,0.0,0.0,0.0,0.0
1615407366.042,0,1615407366,42000055,,0.001359258323309281,-0.0020296184819023995,-0.7491128882916759,0.6624378564521594,-1.0,0.0,0.0,0.0,0.0,0.0,0.0,0.0,0.0,-1.1781904625636784e-05,-2.5697273627250586e-06,-0.0004797604030860703,-1.0,0.0,0.0,0.0,0.0,0.0,0.0,0.0,0.0,0.0,0.0,0.0,-1.0,0.0,0.0,0.0,0.0,0.0,0.0,0.0,0.0
1615407366.062,0,1615407366,62000036,,0.0013785858351174384,-0.0020390143002202705,-0.7491126427448958,0.6624380653325538,-1.0,0.0,0.0,0.0,0.0,0.0,0.0,0.0,0.0,0.00022230919676559152,0.00010808696536094646,-0.0002111016905942965,-1.0,0.0,0.0,0.0,0.0,0.0,0.0,0.0,0.0,0.0,0.0,0.0,-1.0,0.0,0.0,0.0,0.0,0.0,0.0,0.0,0.0
1615407366.082,0,1615407366,82000017,,0.0013764223075121288,-0.0020402451955072146,-0.7491127252707382,0.6624379727179152,-1.0,0.0,0.0,0.0,0.0,0.0,0.0,0.0,0.0,0.00013840324508913027,-1.5588616692613954e-06,-0.00015982432008376275,-1.0,0.0,0.0,0.0,0.0,0.0,0.0,0.0,0.0,0.0,0.0,0.0,-1.0,0.0,0.0,0.0,0.0,0.0,0.0,0.0,0.0
1615407366.102,0,1615407366,101999998,,0.001381010617359668,-0.0020396763498699965,-0.7491126135275068,0.6624380912840465,-1.0,0.0,0.0,0.0,0.0,0.0,0.0,0.0,0.0,0.00017446087179882587,0.0001426532923425882,0.00022507172129445074,-1.0,0.0,0.0,0.0,0.0,0.0,0.0,0.0,0.0,0.0,0.0,0.0,-1.0,0.0,0.0,0.0,0.0,0.0,0.0,0.0,0.0
1615407366.122,0,1615407366,121999979,,0.001381458383602043,-0.0020344254642017732,-0.7491124373006345,0.662438305781956,-1.0,0.0,0.0,0.0,0.0,0.0,0.0,0.0,0.0,-4.386948013908849e-06,0.00023489791693690257,-0.0001212619460067797,-1.0,0.0,0.0,0.0,0.0,0.0,0.0,0.0,0.0,0.0,0.0,0.0,-1.0,0.0,0.0,0.0,0.0,0.0,0.0,0.0,0.0
1615407366.142,0,1615407366,141999960,,0.0013790246183624756,-0.0020400670665140074,-0.7491125701634416,0.6624381432560997,-1.0,0.0,0.0,0.0,0.0,0.0,0.0,0.0,0.0,0.00011579575779286672,-5.3464746491066446e-05,-1.2155248507190298e-05,-1.0,0.0,0.0,0.0,0.0,0.0,0.0,0.0,0.0,0.0,0.0,0.0,-1.0,0.0,0.0,0.0,0.0,0.0,0.0,0.0,0.0
1615407366.162,0,1615407366,161999941,,0.0013774027370913808,-0.002032476088667355,-0.7491125189011,0.6624382279339697,-1.0,0.0,0.0,0.0,0.0,0.0,0.0,0.0,0.0,-0.00014521972987610393,8.357832039304089e-05,0.0002779092399259484,-1.0,0.0,0.0,0.0,0.0,0.0,0.0,0.0,0.0,0.0,0.0,0.0,-1.0,0.0,0.0,0.0,0.0,0.0,0.0,0.0,0.0
1615407366.182,0,1615407366,181999922,,0.0013684871822893243,-0.002035506663956376,-0.7491124535959474,0.662438310956509,-1.0,0.0,0.0,0.0,0.0,0.0,0.0,0.0,0.0,-0.00018021790376618565,-0.00024387616828574755,0.00027348762255315285,-1.0,0.0,0.0,0.0,0.0,0.0,0.0,0.0,0.0,0.0,0.0,0.0,-1.0,0.0,0.0,0.0,0.0,0.0,0.0,0.0,0.0
1615407366.202,0,1615407366,201999903,,0.0013665944199232605,-0.002032327702973559,-0.7491123037385778,0.6624384940892851,-1.0,0.0,0.0,0.0,0.0,0.0,0.0,0.0,0.0,-0.00023703450907527928,-0.00015385972038144897,2.419684312115572e-05,-1.0,0.0,0.0,0.0,0.0,0.0,0.0,0.0,0.0,0.0,0.0,0.0,-1.0,0.0,0.0,0.0,0.0,0.0,0.0,0.0,0.0
1615407366.222,0,1615407366,221999884,,0.0013579504190188198,-0.0020309477560377298,-0.7491123811156378,0.6624384285962969,-1.0,0.0,0.0,0.0,0.0,0.0,0.0,0.0,0.0,-0.0003993026494832196,-0.00029842245255604224,-0.00010674935410401142,-1.0,0.0,0.0,0.0,0.0,0.0,0.0,0.0,0.0,0.0,0.0,0.0,-1.0,0.0,0.0,0.0,0.0,0.0,0.0,0.0,0.0
1615407366.242,0,1615407366,242000103,,0.0013583993092380505,-0.0020256986224744234,-0.7491123952508134,0.6624384277636653,-1.0,0.0,0.0,0.0,0.0,0.0,0.0,0.0,0.0,-0.0003818915537115675,-3.0776831242843944e-05,-0.0001039096582610372,-1.0,0.0,0.0,0.0,0.0,0.0,0.0,0.0,0.0,0.0,0.0,0.0,-1.0,0.0,0.0,0.0,0.0,0.0,0.0,0.0,0.0
1615407366.262,0,1615407366,262000084,,0.0013585771411270637,-0.0020248605274173093,-0.7491123189995539,0.662438516189319,-1.0,0.0,0.0,0.0,0.0,0.0,0.0,0.0,0.0,-0.00030309603436346524,1.983443057871488e-05,-6.581021979643899e-05,-1.0,0.0,0.0,0.0,0.0,0.0,0.0,0.0,0.0,0.0,0.0,0.0,-1.0,0.0,0.0,0.0,0.0,0.0,0.0,0.0,0.0
1615407366.282,0,1615407366,282000065,,0.001354345681302021,-0.002023751502093791,-0.7491126339336938,0.662438172102542,-1.0,0.0,0.0,0.0,0.0,0.0,0.0,0.0,0.0,-0.000341366088000485,-8.208287590102888e-05,0.0002402877690380907,-1.0,0.0,0.0,0.0,0.0,0.0,0.0,0.0,0.0,0.0,0.0,0.0,-1.0,0.0,0.0,0.0,0.0,0.0,0.0,0.0,0.0
1615407366.302,0,1615407366,302000046,,0.0013568660540120808,-0.0020208431360374765,-0.7491127602960423,0.6624380329277413,-1.0,0.0,0.0,0.0,0.0,0.0,0.0,0.0,0.0,-0.0002539816007139664,7.731484863158467e-05,-0.00015738313377151565,-1.0,0.0,0.0,0.0,0.0,0.0,0.0,0.0,0.0,0.0,0.0,0.0,-1.0,0.0,0.0,0.0,0.0,0.0,0.0,0.0,0.0
1615407366.322,0,1615407366,322000027,,0.0013627331212391295,-0.0020208158809336303,-0.749112627178565,0.6624381715022498,-1.0,0.0,0.0,0.0,0.0,0.0,0.0,0.0,0.0,-0.0005229204259811532,6.699745085530644e-05,-0.00022828621121842767,-1.0,0.0,0.0,0.0,0.0,0.0,0.0,0.0,0.0,0.0,0.0,0.0,-1.0,0.0,0.0,0.0,0.0,0.0,0.0,0.0,0.0
1615407366.342,0,1615407366,342000008,,0.0013584998313433472,-0.002019707279195415,-0.7491125338924445,0.662438289069975,-1.0,0.0,0.0,0.0,0.0,0.0,0.0,0.0,0.0,-0.00043924128215268576,-2.851981817094163e-05,-0.00017358701113983548,-1.0,0.0,0.0,0.0,0.0,0.0,0.0,0.0,0.0,0.0,0.0,0.0,-1.0,0.0,0.0,0.0,0.0,0.0,0.0,0.0,0.0
1615407366.362,0,1615407366,361999989,,0.0013604773136443352,-0.002025621326052559,-0.7491124189036441,0.6624383969880172,-1.0,0.0,0.0,0.0,0.0,0.0,0.0,0.0,0.0,-5.809103912894636e-05,-0.00013517061751694578,8.076211171649212e-05,-1.0,0.0,0.0,0.0,0.0,0.0,0.0,0.0,0.0,0.0,0.0,0.0,-1.0,0.0,0.0,0.0,0.0,0.0,0.0,0.0,0.0
1615407366.382,0,1615407366,381999969,,0.0013650671587996845,-0.002025053514199361,-0.7491123072264401,0.6624385155709142,-1.0,0.0,0.0,0.0,0.0,0.0,0.0,0.0,0.0,6.935368387785194e-05,4.250708852332373e-05,-8.099498567351604e-05,-1.0,0.0,0.0,0.0,0.0,0.0,0.0,0.0,0.0,0.0,0.0,0.0,-1.0,0.0,0.0,0.0,0.0,0.0,0.0,0.0,0.0
1615407366.402,0,1615407366,401999950,,0.0013629060573944745,-0.0020262846461693985,-0.7491123069203298,0.6624385166021924,-1.0,0.0,0.0,0.0,0.0,0.0,0.0,0.0,0.0,3.923682576657009e-05,-4.451825957634808e-05,0.00018662536158066913,-1.0,0.0,0.0,0.0,0.0,0.0,0.0,0.0,0.0,0.0,0.0,0.0,-1.0,0.0,0.0,0.0,0.0,0.0,0.0,0.0,0.0
1615407366.422,0,1615407366,421999931,,0.0013651562746049167,-0.0020277863075765343,-0.7491123704849304,0.6624384354922992,-1.0,0.0,0.0,0.0,0.0,0.0,0.0,0.0,0.0,0.00012309608756440866,-2.2989525119120814e-05,0.0002134595662012618,-1.0,0.0,0.0,0.0,0.0,0.0,0.0,0.0,0.0,0.0,0.0,0.0,-1.0,0.0,0.0,0.0,0.0,0.0,0.0,0.0,0.0
1615407366.442,0,1615407366,441999912,,0.001363265556775457,-0.0020246057939952112,-0.7491124494703516,0.6624383597942759,-1.0,0.0,0.0,0.0,0.0,0.0,0.0,0.0,0.0,-6.177772350279091e-05,-2.0125299854207668e-05,8.466461153334276e-05,-1.0,0.0,0.0,0.0,0.0,0.0,0.0,0.0,0.0,0.0,0.0,0.0,-1.0,0.0,0.0,0.0,0.0,0.0,0.0,0.0,0.0
1615407366.462,0,1615407366,461999893,,0.0013631737296651474,-0.002028177932220695,-0.7491123628402336,0.6624384470209895,-1.0,0.0,0.0,0.0,0.0,0.0,0.0,0.0,0.0,5.4432348353422636e-05,-8.562608078664895e-05,0.00021624436930815715,-1.0,0.0,0.0,0.0,0.0,0.0,0.0,0.0,0.0,0.0,0.0,0.0,-1.0,0.0,0.0,0.0,0.0,0.0,0.0,0.0,0.0
1615407366.482,0,1615407366,482000113,,0.0013610111577608474,-0.0020294097871332286,-0.7491121611955828,0.6624386757228383,-1.0,0.0,0.0,0.0,0.0,0.0,0.0,0.0,0.0,-3.1875554929074803e-06,-0.0001512404267451515,0.00023281489309010707,-1.0,0.0,0.0,0.0,0.0,0.0,0.0,0.0,0.0,0.0,0.0,0.0,-1.0,0.0,0.0,0.0,0.0,0.0,0.0,0.0,0.0
1615407366.502,0,1615407366,502000093,,0.0013523680756852945,-0.0020280294502583885,-0.7491120481620043,0.6624388254742197,-1.0,0.0,0.0,0.0,0.0,0.0,0.0,0.0,0.0,-0.00025711276331013915,-0.00030677287948215797,-0.00010632176231069887,-1.0,0.0,0.0,0.0,0.0,0.0,0.0,0.0,0.0,0.0,0.0,0.0,-1.0,0.0,0.0,0.0,0.0,0.0,0.0,0.0,0.0
1615407366.522,0,1615407366,522000074,,0.0013525468020684286,-0.002027190912949845,-0.7491120049816089,0.6624388765060403,-1.0,0.0,0.0,0.0,0.0,0.0,0.0,0.0,0.0,-0.0001862216112699193,-0.00020634258652015824,-9.130618923527988e-05,-1.0,0.0,0.0,0.0,0.0,0.0,0.0,0.0,0.0,0.0,0.0,0.0,-1.0,0.0,0.0,0.0,0.0,0.0,0.0,0.0,0.0
1615407366.542,0,1615407366,542000055,,0.001350114713722126,-0.0020328334483335937,-0.7491121680031536,0.6624386798248169,-1.0,0.0,0.0,0.0,0.0,0.0,0.0,0.0,0.0,-3.844487093027835e-05,-0.00032156976539994835,0.00025843569136351657,-1.0,0.0,0.0,0.0,0.0,0.0,0.0,0.0,0.0,0.0,0.0,0.0,-1.0,0.0,0.0,0.0,0.0,0.0,0.0,0.0,0.0
1615407366.562,0,1615407366,562000036,,0.001345612177280512,-0.002036135200372992,-0.7491120698154189,0.6624387898803732,-1.0,0.0,0.0,0.0,0.0,0.0,0.0,0.0,0.0,-3.2610656704428556e-05,-0.0003846487494194314,0.00034041342413652285,-1.0,0.0,0.0,0.0,0.0,0.0,0.0,0.0,0.0,0.0,0.0,0.0,-1.0,0.0,0.0,0.0,0.0,0.0,0.0,0.0,0.0
1615407366.582,0,1615407366,582000017,,0.001353038183742323,-0.0020387389837254436,-0.7491121642237901,0.6624386599851936,-1.0,0.0,0.0,0.0,0.0,0.0,0.0,0.0,0.0,-0.00025262963893001115,-0.0002574398634786833,0.000324455458445578,-1.0,0.0,0.0,0.0,0.0,0.0,0.0,0.0,0.0,0.0,0.0,0.0,-1.0,0.0,0.0,0.0,0.0,0.0,0.0,0.0,0.0
1615407366.602,0,1615407366,601999998,,0.001353488785114472,-0.0020334900618466556,-0.7491122445379051,0.662438584375683,-1.0,0.0,0.0,0.0,0.0,0.0,0.0,0.0,0.0,-0.00030824037392830454,-5.023060791320755e-05,0.00029259296553019176,-1.0,0.0,0.0,0.0,0.0,0.0,0.0,0.0,0.0,0.0,0.0,0.0,-1.0,0.0,0.0,0.0,0.0,0.0,0.0,0.0,0.0
1615407366.622,0,1615407366,621999979,,0.0013422350530305433,-0.002038591152013922,-0.7491124535140082,0.6624383552764741,-1.0,0.0,0.0,0.0,0.0,0.0,0.0,0.0,0.0,-0.0003322312922541281,-0.0004227622756608708,6.918150568225376e-05,-1.0,0.0,0.0,0.0,0.0,0.0,0.0,0.0,0.0,0.0,0.0,0.0,-1.0,0.0,0.0,0.0,0.0,0.0,0.0,0.0,0.0
1615407366.642,0,1615407366,641999960,,0.0013380030522852232,-0.0020374823960043233,-0.7491123078401009,0.662438531983003,-1.0,0.0,0.0,0.0,0.0,0.0,0.0,0.0,0.0,-0.0003604790680240844,-0.0003599334646529685,5.7741556897283566e-05,-1.0,0.0,0.0,0.0,0.0,0.0,0.0,0.0,0.0,0.0,0.0,0.0,-1.0,0.0,0.0,0.0,0.0,0.0,0.0,0.0,0.0
1615407366.662,0,1615407366,661999941,,0.001331700944484716,-0.0020340324101469796,-0.7491122677974067,0.6624386005662528,-1.0,0.0,0.0,0.0,0.0,0.0,0.0,0.0,0.0,-0.00046776994959323254,-0.0003085916877860603,0.0004800745546129152,-1.0,0.0,0.0,0.0,0.0,0.0,0.0,0.0,0.0,0.0,0.0,0.0,-1.0,0.0,0.0,0.0,0.0,0.0,0.0,0.0,0.0
1615407366.682,0,1615407366,681999922,,0.0013365616434714027,-0.0020290544776927905,-0.7491120949489575,0.6624388015070403,-1.0,0.0,0.0,0.0,0.0,0.0,0.0,0.0,0.0,-0.0003244085673872912,4.2457509719528416e-05,0.000134554233132977,-1.0,0.0,0.0,0.0,0.0,0.0,0.0,0.0,0.0,0.0,0.0,0.0,-1.0,0.0,0.0,0.0,0.0,0.0,0.0,0.0,0.0
1615407366.702,0,1615407366,701999903,,0.001340881055121278,-0.0020328987856307362,-0.7491120197927906,0.6624388659812233,-1.0,0.0,0.0,0.0,0.0,0.0,0.0,0.0,0.0,-2.671631439478496e-05,3.403256425933014e-05,0.0002929481113895152,-1.0,0.0,0.0,0.0,0.0,0.0,0.0,0.0,0.0,0.0,0.0,0.0,-1.0,0.0,0.0,0.0,0.0,0.0,0.0,0.0,0.0
1615407366.722,0,1615407366,721999884,,0.0013498841470404239,-0.0020326025022061457,-0.7491123802657081,0.662438440968293,-1.0,0.0,0.0,0.0,0.0,0.0,0.0,0.0,0.0,0.0002024965652784846,0.00024462427568842053,3.434289383607924e-05,-1.0,0.0,0.0,0.0,0.0,0.0,0.0,0.0,0.0,0.0,0.0,0.0,-1.0,0.0,0.0,0.0,0.0,0.0,0.0,0.0,0.0
1615407366.742,0,1615407366,742000103,,0.001349794488788142,-0.002036175398056269,-0.7491127183313606,0.6624380478797894,-1.0,0.0,0.0,0.0,0.0,0.0,0.0,0.0,0.0,0.00018276018713404753,6.543936532906237e-05,-0.0001454562633047202,-1.0,0.0,0.0,0.0,0.0,0.0,0.0,0.0,0.0,0.0,0.0,0.0,-1.0,0.0,0.0,0.0,0.0,0.0,0.0,0.0,0.0
1615407366.762,0,1615407366,762000084,,0.0013432231187186332,-0.0020371361753399727,-0.7491128581517146,0.6624379001684805,-1.0,0.0,0.0,0.0,0.0,0.0,0.0,0.0,0.0,1.1297746545244474e-05,-0.0001984793522835672,-0.0002081959009787121,-1.0,0.0,0.0,0.0,0.0,0.0,0.0,0.0,0.0,0.0,0.0,0.0,-1.0,0.0,0.0,0.0,0.0,0.0,0.0,0.0,0.0
1615407366.782,0,1615407366,782000065,,0.001345472772839168,-0.002038639449341358,-0.7491126734565313,0.6624380998395408,-1.0,0.0,0.0,0.0,0.0,0.0,0.0,0.0,0.0,9.11741351004976e-05,-9.014721268321821e-05,-2.3126932474355945e-05,-1.0,0.0,0.0,0.0,0.0,0.0,0.0,0.0,0.0,0.0,0.0,0.0,-1.0,0.0,0.0,0.0,0.0,0.0,0.0,0.0,0.0
1615407366.802,0,1615407366,802000046,,0.0013461941428644442,-0.0020289792001636172,-0.7491125849385931,0.6624382281325212,-1.0,0.0,0.0,0.0,0.0,0.0,0.0,0.0,0.0,-0.00017380085077938197,0.0001946784657942682,5.430376255768293e-05,-1.0,0.0,0.0,0.0,0.0,0.0,0.0,0.0,0.0,0.0,0.0,0.0,-1.0,0.0,0.0,0.0,0.0,0.0,0.0,0.0,0.0
1615407366.822,0,1615407366,822000027,,0.0013481723302140646,-0.0020348928807157967,-0.7491126628947528,0.6624381178140828,-1.0,0.0,0.0,0.0,0.0,0.0,0.0,0.0,0.0,8.456730639173253e-05,4.514528468816933e-05,0.00010512632584021733,-1.0,0.0,0.0,0.0,0.0,0.0,0.0,0.0,0.0,0.0,0.0,0.0,-1.0,0.0,0.0,0.0,0.0,0.0,0.0,0.0,0.0
1615407366.842,0,1615407366,842000008,,0.001359430834816714,-0.0020419330467509114,-0.7491127974035732,0.6624379210336854,-1.0,0.0,0.0,0.0,0.0,0.0,0.0,0.0,0.0,3.796686296898627e-05,5.9554903246100316e-05,4.735511231819166e-05,-1.0,0.0,0.0,0.0,0.0,0.0,0.0,0.0,0.0,0.0,0.0,0.0,-1.0,0.0,0.0,0.0,0.0,0.0,0.0,0.0,0.0
1615407366.862,0,1615407366,861999989,,0.0013598820417518999,-0.002036683506960436,-0.7491128556138741,0.6624378704415622,-1.0,0.0,0.0,0.0,0.0,0.0,0.0,0.0,0.0,-9.38308072401123e-05,0.0001601575612099267,2.1916161868057503e-05,-1.0,0.0,0.0,0.0,0.0,0.0,0.0,0.0,0.0,0.0,0.0,0.0,-1.0,0.0,0.0,0.0,0.0,0.0,0.0,0.0,0.0
1615407366.882,0,1615407366,881999969,,0.0013553804497228995,-0.0020399852851988123,-0.7491127878023879,0.662437946191798,-1.0,0.0,0.0,0.0,0.0,0.0,0.0,0.0,0.0,-7.905247735621718e-05,-0.00012381707517247921,0.00031896855510280464,-1.0,0.0,0.0,0.0,0.0,0.0,0.0,0.0,0.0,0.0,0.0,0.0,-1.0,0.0,0.0,0.0,0.0,0.0,0.0,0.0,0.0
1615407366.902,0,1615407366,901999950,,0.0013511505095283114,-0.002038875634947875,-0.7491127524619177,0.6624379982137011,-1.0,0.0,0.0,0.0,0.0,0.0,0.0,0.0,0.0,-0.00017297091969940462,-0.00015598480196552273,0.00018762198141154905,-1.0,0.0,0.0,0.0,0.0,0.0,0.0,0.0,0.0,0.0,0.0,0.0,-1.0,0.0,0.0,0.0,0.0,0.0,0.0,0.0,0.0
1615407366.922,0,1615407366,921999931,,0.001353672962842413,-0.002035967507416243,-0.7491127850370397,0.6624379651709799,-1.0,0.0,0.0,0.0,0.0,0.0,0.0,0.0,0.0,-0.0001309407423374951,1.7637269781183904e-05,-9.331180702539127e-07,-1.0,0.0,0.0,0.0,0.0,0.0,0.0,0.0,0.0,0.0,0.0,0.0,-1.0,0.0,0.0,0.0,0.0,0.0,0.0,0.0,0.0
1615407366.942,0,1615407366,941999912,,0.001356467021759933,-0.0020286487539959547,-0.749112803134996,0.662437961442942,-1.0,0.0,0.0,0.0,0.0,0.0,0.0,0.0,0.0,-0.0002497096524094916,0.00024406153139724647,9.14944554287356e-05,-1.0,0.0,0.0,0.0,0.0,0.0,0.0,0.0,0.0,0.0,0.0,0.0,-1.0,0.0,0.0,0.0,0.0,0.0,0.0,0.0,0.0
1615407366.962,0,1615407366,961999893,,0.001361331169230898,-0.002023671442151857,-0.7491127486871915,0.6624380282605029,-1.0,0.0,0.0,0.0,0.0,0.0,0.0,0.0,0.0,-0.00017112218535693906,0.0004377397506640829,0.0002758748030974648,-1.0,0.0,0.0,0.0,0.0,0.0,0.0,0.0,0.0,0.0,0.0,0.0,-1.0,0.0,0.0,0.0,0.0,0.0,0.0,0.0,0.0
1615407366.982,0,1615407366,982000113,,0.001368264734611331,-0.0020210353573229204,-0.7491123872439225,0.6624384307582193,-1.0,0.0,0.0,0.0,0.0,0.0,0.0,0.0,0.0,-2.6067629463510266e-05,0.0005095788048954169,0.00016948369403335135,-1.0,0.0,0.0,0.0,0.0,0.0,0.0,0.0,0.0,0.0,0.0,0.0,-1.0,0.0,0.0,0.0,0.0,0.0,0.0,0.0,0.0
1615407367.002,0,1615407367,2000093,,0.0013749283236448551,-0.0020228091430561173,-0.7491122333370465,0.6624385855911914,-1.0,0.0,0.0,0.0,0.0,0.0,0.0,0.0,0.0,0.0001917121584468671,0.00047685968333372017,0.00012345059399016683,-1.0,0.0,0.0,0.0,0.0,0.0,0.0,0.0,0.0,0.0,0.0,0.0,-1.0,0.0,0.0,0.0,0.0,0.0,0.0,0.0,0.0
1615407367.022,0,1615407367,22000074,,0.0013795230025723886,-0.0020222410448128576,-0.749112413919541,0.6624383735632171,-1.0,0.0,0.0,0.0,0.0,0.0,0.0,0.0,0.0,0.00020959666162701974,0.00046552817414031555,0.0002618825721259325,-1.0,0.0,0.0,0.0,0.0,0.0,0.0,0.0,0.0,0.0,0.0,0.0,-1.0,0.0,0.0,0.0,0.0,0.0,0.0,0.0,0.0
1615407367.042,0,1615407367,42000055,,0.0013799776042575887,-0.0020169912526951344,-0.7491124830203253,0.6624383104797166,-1.0,0.0,0.0,0.0,0.0,0.0,0.0,0.0,0.0,7.596266910413061e-06,0.0004367339400370256,2.517218904457113e-05,-1.0,0.0,0.0,0.0,0.0,0.0,0.0,0.0,0.0,0.0,0.0,0.0,-1.0,0.0,0.0,0.0,0.0,0.0,0.0,0.0,0.0
1615407367.062,0,1615407367,62000036,,0.0013736803956182315,-0.002013540279182271,-0.7491125091138477,0.6624383045589002,-1.0,0.0,0.0,0.0,0.0,0.0,0.0,0.0,0.0,-0.00022856679759370225,0.0002254918985446289,0.00033358184091424324,-1.0,0.0,0.0,0.0,0.0,0.0,0.0,0.0,0.0,0.0,0.0,0.0,-1.0,0.0,0.0,0.0,0.0,0.0,0.0,0.0,0.0
1615407367.082,0,1615407367,82000017,,0.0013668414763897446,-0.0020189111280924125,-0.7491126497713525,0.6624381432970013,-1.0,0.0,0.0,0.0,0.0,0.0,0.0,0.0,0.0,-0.00017864947833172565,-0.0001506109517466828,0.00022091482872255773,-1.0,0.0,0.0,0.0,0.0,0.0,0.0,0.0,0.0,0.0,0.0,0.0,-1.0,0.0,0.0,0.0,0.0,0.0,0.0,0.0,0.0
1615407367.102,0,1615407367,101999998,,0.0013733198466148568,-0.0020295755442865174,-0.7491126007391624,0.662438152758065,-1.0,0.0,0.0,0.0,0.0,0.0,0.0,0.0,0.0,-0.00013462229824550516,-0.0002747409535947979,-7.927662271627556e-05,-1.0,0.0,0.0,0.0,0.0,0.0,0.0,0.0,0.0,0.0,0.0,0.0,-1.0,0.0,0.0,0.0,0.0,0.0,0.0,0.0,0.0
1615407367.122,0,1615407367,121999979,,0.0013784576857501173,-0.0020201853303672525,-0.749112782697431,0.6624379650238588,-1.0,0.0,0.0,0.0,0.0,0.0,0.0,0.0,0.0,-0.00019447423698048575,0.00022243647376648664,4.1128494529191025e-05,-1.0,0.0,0.0,0.0,0.0,0.0,0.0,0.0,0.0,0.0,0.0,0.0,-1.0,0.0,0.0,0.0,0.0,0.0,0.0,0.0,0.0
1615407367.142,0,1615407367,141999960,,0.0013835955886708478,-0.002010795274394518,-0.7491129727464642,0.6624377679665968,-1.0,0.0,0.0,0.0,0.0,0.0,0.0,0.0,0.0,-0.00025748715864093116,0.0004232575016946669,7.636638924979079e-06,-1.0,0.0,0.0,0.0,0.0,0.0,0.0,0.0,0.0,0.0,0.0,0.0,-1.0,0.0,0.0,0.0,0.0,0.0,0.0,0.0,0.0
1615407367.162,0,1615407367,161999941,,0.0013793688709882398,-0.002009686658941198,-0.7491129373764337,0.6624378201433716,-1.0,0.0,0.0,0.0,0.0,0.0,0.0,0.0,0.0,-0.00028756710844670086,0.00021663535319120048,-9.769252347216915e-05,-1.0,0.0,0.0,0.0,0.0,0.0,0.0,0.0,0.0,0.0,0.0,0.0,-1.0,0.0,0.0,0.0,0.0,0.0,0.0,0.0,0.0
1615407367.182,0,1615407367,181999922,,0.0013816232382420674,-0.0020111899876761896,-0.7491127279080796,0.6624380477585633,-1.0,0.0,0.0,0.0,0.0,0.0,0.0,0.0,0.0,-8.105205232601572e-05,0.00016095874519033712,-4.803532750327521e-06,-1.0,0.0,0.0,0.0,0.0,0.0,0.0,0.0,0.0,0.0,0.0,0.0,-1.0,0.0,0.0,0.0,0.0,0.0,0.0,0.0,0.0
1615407367.202,0,1615407367,201999903,,0.0013838781207749634,-0.0020126932742666878,-0.7491126287388571,0.6624381506307512,-1.0,0.0,0.0,0.0,0.0,0.0,0.0,0.0,0.0,4.195227776692077e-05,0.0001909271881790836,-0.00010350799245375589,-1.0,0.0,0.0,0.0,0.0,0.0,0.0,0.0,0.0,0.0,0.0,0.0,-1.0,0.0,0.0,0.0,0.0,0.0,0.0,0.0,0.0
1615407367.222,0,1615407367,221999884,,0.001384063867559244,-0.002011855741822243,-0.7491127868707774,0.6624379739646435,-1.0,0.0,0.0,0.0,0.0,0.0,0.0,0.0,0.0,3.3926882267307606e-05,0.00014170771985693679,-7.712056689973261e-05,-1.0,0.0,0.0,0.0,0.0,0.0,0.0,0.0,0.0,0.0,0.0,0.0,-1.0,0.0,0.0,0.0,0.0,0.0,0.0,0.0,0.0
1615407367.242,0,1615407367,242000103,,0.00138452093003423,-0.0020066062674980955,-0.7491129469425101,0.662437807915724,-1.0,0.0,0.0,0.0,0.0,0.0,0.0,0.0,0.0,-0.00012009811816073601,0.00021419322723891383,-7.353350466531003e-05,-1.0,0.0,0.0,0.0,0.0,0.0,0.0,0.0,0.0,0.0,0.0,0.0,-1.0,0.0,0.0,0.0,0.0,0.0,0.0,0.0,0.0
1615407367.262,0,1615407367,262000084,,0.0013735424860895308,-0.002007297391251113,-0.7491128685496944,0.6624379173261976,-1.0,0.0,0.0,0.0,0.0,0.0,0.0,0.0,0.0,-0.0003461551018399965,-0.00014677544018441995,-0.0005336573664361474,-1.0,0.0,0.0,0.0,0.0,0.0,0.0,0.0,0.0,0.0,0.0,0.0,-1.0,0.0,0.0,0.0,0.0,0.0,0.0,0.0,0.0
1615407367.282,0,1615407367,282000065,,0.0013734569027918798,-0.002010870599012844,-0.7491128481826523,0.6624379296985075,-1.0,0.0,0.0,0.0,0.0,0.0,0.0,0.0,0.0,-0.00011947777255506497,-0.0002149659043177369,-0.0002931322867667232,-1.0,0.0,0.0,0.0,0.0,0.0,0.0,0.0,0.0,0.0,0.0,0.0,-1.0,0.0,0.0,0.0,0.0,0.0,0.0,0.0,0.0
1615407367.302,0,1615407367,302000046,,0.0013710304263083322,-0.0020165139429318907,-0.7491128431340517,0.6624379232793861,-1.0,0.0,0.0,0.0,0.0,0.0,0.0,0.0,0.0,5.497596691012645e-06,-0.0003484540714994934,-0.00010141805425497532,-1.0,0.0,0.0,0.0,0.0,0.0,0.0,0.0,0.0,0.0,0.0,0.0,-1.0,0.0,0.0,0.0,0.0,0.0,0.0,0.0,0.0
1615407367.322,0,1615407367,322000027,,0.0013732859756602918,-0.0020180168973801147,-0.7491127605178255,0.6624380074563915,-1.0,0.0,0.0,0.0,0.0,0.0,0.0,0.0,0.0,8.749217967757807e-05,-0.00020090010205417214,0.00033160182410357694,-1.0,0.0,0.0,0.0,0.0,0.0,0.0,0.0,0.0,0.0,0.0,0.0,-1.0,0.0,0.0,0.0,0.0,0.0,0.0,0.0,0.0
1615407367.342,0,1615407367,342000008,,0.0013714015401801321,-0.0020148376847758664,-0.7491129939171022,0.6624377570998464,-1.0,0.0,0.0,0.0,0.0,0.0,0.0,0.0,0.0,-6.121315548940409e-05,-9.161696593722823e-05,-1.7796412520991383e-05,-1.0,0.0,0.0,0.0,0.0,0.0,0.0,0.0,0.0,0.0,0.0,0.0,-1.0,0.0,0.0,0.0,0.0,0.0,0.0,0.0,0.0
1615407367.362,0,1615407367,361999989,,0.0013819879881422782,-0.002016884727932965,-0.7491128553625963,0.6624378855528215,-1.0,0.0,0.0,0.0,0.0,0.0,0.0,0.0,0.0,-0.0001825127586772834,7.123500906506104e-05,9.167678476316859e-05,-1.0,0.0,0.0,0.0,0.0,0.0,0.0,0.0,0.0,0.0,0.0,0.0,-1.0,0.0,0.0,0.0,0.0,0.0,0.0,0.0,0.0
1615407367.382,0,1615407367,381999969,,0.0013821746275469381,-0.002016046609618497,-0.7491128728171556,0.6624378679763069,-1.0,0.0,0.0,0.0,0.0,0.0,0.0,0.0,0.0,-0.00013946150760470023,6.435613322248256e-05,3.849503251547984e-05,-1.0,0.0,0.0,0.0,0.0,0.0,0.0,0.0,0.0,0.0,0.0,0.0,-1.0,0.0,0.0,0.0,0.0,0.0,0.0,0.0,0.0
1615407367.402,0,1615407367,401999950,,0.001382631979561777,-0.002010797540051997,-0.7491127791583587,0.6624379888893014,-1.0,0.0,0.0,0.0,0.0,0.0,0.0,0.0,0.0,-0.00023383747400756354,0.0001735979957451363,0.0002523340878512267,-1.0,0.0,0.0,0.0,0.0,0.0,0.0,0.0,0.0,0.0,0.0,0.0,-1.0,0.0,0.0,0.0,0.0,0.0,0.0,0.0,0.0
1615407367.422,0,1615407367,421999931,,0.0013760662358552826,-0.002011759758160296,-0.749112546738554,0.6624382624692415,-1.0,0.0,0.0,0.0,0.0,0.0,0.0,0.0,0.0,-0.0002618595015893018,-7.085803744352192e-05,0.00026888755599860294,-1.0,0.0,0.0,0.0,0.0,0.0,0.0,0.0,0.0,0.0,0.0,0.0,-1.0,0.0,0.0,0.0,0.0,0.0,0.0,0.0,0.0
1615407367.442,0,1615407367,441999912,,0.0013765238209821516,-0.0020065117606276267,-0.749112544115777,0.6624382804013614,-1.0,0.0,0.0,0.0,0.0,0.0,0.0,0.0,0.0,-0.00029148639693865673,0.00011872869392622526,0.0001333696084253153,-1.0,0.0,0.0,0.0,0.0,0.0,0.0,0.0,0.0,0.0,0.0,0.0,-1.0,0.0,0.0,0.0,0.0,0.0,0.0,0.0,0.0
1615407367.462,0,1615407367,461999893,,0.0013746407042950224,-0.002003334455566618,-0.7491124409576331,0.6624384105835728,-1.0,0.0,0.0,0.0,0.0,0.0,0.0,0.0,0.0,-0.0003447774851815635,5.275208743030597e-05,-7.040760870744028e-05,-1.0,0.0,0.0,0.0,0.0,0.0,0.0,0.0,0.0,0.0,0.0,0.0,-1.0,0.0,0.0,0.0,0.0,0.0,0.0,0.0,0.0
1615407367.482,0,1615407367,482000113,,0.0013701460973633433,-0.0020066376706134115,-0.7491124256147621,0.6624384272477694,-1.0,0.0,0.0,0.0,0.0,0.0,0.0,0.0,0.0,-0.00024350344010477706,-0.0001513961869220797,-0.0003053448354150898,-1.0,0.0,0.0,0.0,0.0,0.0,0.0,0.0,0.0,0.0,0.0,0.0,-1.0,0.0,0.0,0.0,0.0,0.0,0.0,0.0,0.0
1615407367.502,0,1615407367,502000093,,0.0013750159290842699,-0.002001660099247735,-0.749112528227266,0.6624383161781898,-1.0,0.0,0.0,0.0,0.0,0.0,0.0,0.0,0.0,-0.00021093085019595272,0.0001207878378463676,-0.00022074833094458868,-1.0,0.0,0.0,0.0,0.0,0.0,0.0,0.0,0.0,0.0,0.0,0.0,-1.0,0.0,0.0,0.0,0.0,0.0,0.0,0.0,0.0
1615407367.522,0,1615407367,522000074,,0.0013728625397729907,-0.0020028937119441017,-0.7491125665168336,0.6624382736163333,-1.0,0.0,0.0,0.0,0.0,0.0,0.0,0.0,0.0,-0.0001770428591657234,-2.689708309366148e-05,-0.00016648999243032704,-1.0,0.0,0.0,0.0,0.0,0.0,0.0,0.0,0.0,0.0,0.0,0.0,-1.0,0.0,0.0,0.0,0.0,0.0,0.0,0.0,0.0
1615407367.542,0,1615407367,542000055,,0.0013771905782450024,-0.0020067388531933637,-0.7491126845112759,0.6624381195625717,-1.0,0.0,0.0,0.0,0.0,0.0,0.0,0.0,0.0,8.268327937224792e-05,4.6331784037316394e-05,-0.00038090692016006097,-1.0,0.0,0.0,0.0,0.0,0.0,0.0,0.0,0.0,0.0,0.0,0.0,-1.0,0.0,0.0,0.0,0.0,0.0,0.0,0.0,0.0
1615407367.562,0,1615407367,562000036,,0.0013797180494712104,-0.0020038322503558247,-0.74911261491116,0.6624382018085767,-1.0,0.0,0.0,0.0,0.0,0.0,0.0,0.0,0.0,4.944680431400356e-05,0.00014035961011779713,-0.0005788377223028448,-1.0,0.0,0.0,0.0,0.0,0.0,0.0,0.0,0.0,0.0,0.0,0.0,-1.0,0.0,0.0,0.0,0.0,0.0,0.0,0.0,0.0
1615407367.582,0,1615407367,582000017,,0.0013843148532997928,-0.0020032669127670456,-0.7491123762931202,0.6624384637674188,-1.0,0.0,0.0,0.0,0.0,0.0,0.0,0.0,0.0,0.00010625906222603223,0.00021217036603884498,-0.0003340876953709351,-1.0,0.0,0.0,0.0,0.0,0.0,0.0,0.0,0.0,0.0,0.0,0.0,-1.0,0.0,0.0,0.0,0.0,0.0,0.0,0.0,0.0
1615407367.602,0,1615407367,601999998,,0.0013883711154468082,-0.0020115234691046673,-0.7491123737282339,0.6624384331590595,-1.0,0.0,0.0,0.0,0.0,0.0,0.0,0.0,0.0,0.0003697908401623567,4.554654962987111e-05,-0.00014978112144247644,-1.0,0.0,0.0,0.0,0.0,0.0,0.0,0.0,0.0,0.0,0.0,0.0,-1.0,0.0,0.0,0.0,0.0,0.0,0.0,0.0,0.0
1615407367.622,0,1615407367,621999979,,0.0013977718457096372,-0.002018424050091288,-0.7491124660324383,0.6624382880186052,-1.0,0.0,0.0,0.0,0.0,0.0,0.0,0.0,0.0,0.0001802233238052407,3.622494487341692e-05,9.614224196759649e-05,-1.0,0.0,0.0,0.0,0.0,0.0,0.0,0.0,0.0,0.0,0.0,0.0,-1.0,0.0,0.0,0.0,0.0,0.0,0.0,0.0,0.0
1615407367.642,0,1615407367,641999960,,0.0013964300608462227,-0.002006426085947574,-0.7491122315936942,0.6624385924100151,-1.0,0.0,0.0,0.0,0.0,0.0,0.0,0.0,0.0,-0.00021512013250471576,0.0002800831548968548,2.8873601594543122e-05,-1.0,0.0,0.0,0.0,0.0,0.0,0.0,0.0,0.0,0.0,0.0,0.0,-1.0,0.0,0.0,0.0,0.0,0.0,0.0,0.0,0.0
1615407367.662,0,1615407367,661999941,,0.0013919352857530585,-0.002009731040330429,-0.7491123018740985,0.662438512375447,-1.0,0.0,0.0,0.0,0.0,0.0,0.0,0.0,0.0,-0.0001583958973502525,1.0205031428175724e-05,-2.412977193513946e-05,-1.0,0.0,0.0,0.0,0.0,0.0,0.0,0.0,0.0,0.0,0.0,0.0,-1.0,0.0,0.0,0.0,0.0,0.0,0.0,0.0,0.0
1615407367.682,0,1615407367,681999922,,0.0013874404997026503,-0.0020130364503145857,-0.7491123114512408,0.6624385009382296,-1.0,0.0,0.0,0.0,0.0,0.0,0.0,0.0,0.0,-0.00012116555604224184,-0.00019186423773033258,-0.00012868647644652121,-1.0,0.0,0.0,0.0,0.0,0.0,0.0,0.0,0.0,0.0,0.0,0.0,-1.0,0.0,0.0,0.0,0.0,0.0,0.0,0.0,0.0
1615407367.702,0,1615407367,701999903,,0.0013876282448934592,-0.0020122010422983956,-0.7491125054142979,0.6624382837417634,-1.0,0.0,0.0,0.0,0.0,0.0,0.0,0.0,0.0,-7.29951239546397e-05,-9.581956446981843e-05,-0.00012993945620106087,-1.0,0.0,0.0,0.0,0.0,0.0,0.0,0.0,0.0,0.0,0.0,0.0,-1.0,0.0,0.0,0.0,0.0,0.0,0.0,0.0,0.0
1615407367.722,0,1615407367,721999884,,0.001389885624907546,-0.002013706753525619,-0.7491125110558131,0.6624382680542502,-1.0,0.0,0.0,0.0,0.0,0.0,0.0,0.0,0.0,3.610316356724353e-05,-6.779760881726319e-05,9.546483650382966e-05,-1.0,0.0,0.0,0.0,0.0,0.0,0.0,0.0,0.0,0.0,0.0,0.0,-1.0,0.0,0.0,0.0,0.0,0.0,0.0,0.0,0.0
1615407367.742,0,1615407367,742000103,,0.001389802513966422,-0.0020172824563291954,-0.7491126672084153,0.6624380807655593,-1.0,0.0,0.0,0.0,0.0,0.0,0.0,0.0,0.0,0.0001100621079292298,-0.00013941192150180117,0.00027835417409422577,-1.0,0.0,0.0,0.0,0.0,0.0,0.0,0.0,0.0,0.0,0.0,0.0,-1.0,0.0,0.0,0.0,0.0,0.0,0.0,0.0,0.0
1615407367.762,0,1615407367,762000084,,0.0013902600934782205,-0.002012036406105624,-0.7491125624768433,0.6624382141949169,-1.0,0.0,0.0,0.0,0.0,0.0,0.0,0.0,0.0,-5.753835530487656e-05,4.996649418841213e-05,0.00016086348100163085,-1.0,0.0,0.0,0.0,0.0,0.0,0.0,0.0,0.0,0.0,0.0,0.0,-1.0,0.0,0.0,0.0,0.0,0.0,0.0,0.0,0.0
1615407367.782,0,1615407367,782000065,,0.0013881066768210199,-0.0020132716157151144,-0.7491127552445785,0.6624379969681172,-1.0,0.0,0.0,0.0,0.0,0.0,0.0,0.0,0.0,-5.498809713858106e-05,-5.204251495067538e-05,7.250846075748394e-05,-1.0,0.0,0.0,0.0,0.0,0.0,0.0,0.0,0.0,0.0,0.0,0.0,-1.0,0.0,0.0,0.0,0.0,0.0,0.0,0.0,0.0
1615407367.802,0,1615407367,802000046,,0.0013903639392619232,-0.0020147787432662355,-0.7491128463592128,0.6624378846158564,-1.0,0.0,0.0,0.0,0.0,0.0,0.0,0.0,0.0,3.782592315011282e-05,-4.1225973098876935e-06,0.00018230582528334612,-1.0,0.0,0.0,0.0,0.0,0.0,0.0,0.0,0.0,0.0,0.0,0.0,-1.0,0.0,0.0,0.0,0.0,0.0,0.0,0.0,0.0
1615407367.822,0,1615407367,822000027,,0.001384069419387714,-0.002011333884907424,-0.7491128779407485,0.6624378725519663,-1.0,0.0,0.0,0.0,0.0,0.0,0.0,0.0,0.0,-0.00018475951222533175,-8.757322156405533e-05,-3.964734843951931e-05,-1.0,0.0,0.0,0.0,0.0,0.0,0.0,0.0,0.0,0.0,0.0,0.0,-1.0,0.0,0.0,0.0,0.0,0.0,0.0,0.0,0.0
1615407367.842,0,1615407367,842000008,,0.0013842550228445184,-0.002010501018817691,-0.7491127188482886,0.6624380546008887,-1.0,0.0,0.0,0.0,0.0,0.0,0.0,0.0,0.0,-0.0001259463487414342,-5.1214306255266353e-05,-2.644173964422888e-06,-1.0,0.0,0.0,0.0,0.0,0.0,0.0,0.0,0.0,0.0,0.0,0.0,-1.0,0.0,0.0,0.0,0.0,0.0,0.0,0.0,0.0
1615407367.862,0,1615407367,861999989,,0.0013776879811799327,-0.00201146781854552,-0.7491124891691056,0.662438325086878,-1.0,0.0,0.0,0.0,0.0,0.0,0.0,0.0,0.0,-0.0002034807353825382,-0.00021974047870053652,0.00017903186176406897,-1.0,0.0,0.0,0.0,0.0,0.0,0.0,0.0,0.0,0.0,0.0,0.0,-1.0,0.0,0.0,0.0,0.0,0.0,0.0,0.0,0.0
1615407367.882,0,1615407367,881999969,,0.0013822722300336375,-0.0020184543304269326,-0.7491124919755505,0.6624382911122959,-1.0,0.0,0.0,0.0,0.0,0.0,0.0,0.0,0.0,-0.00024184317684055245,-0.00023921499505798131,-7.871354729528662e-06,-1.0,0.0,0.0,0.0,0.0,0.0,0.0,0.0,0.0,0.0,0.0,0.0,-1.0,0.0,0.0,0.0,0.0,0.0,0.0,0.0,0.0
1615407367.902,0,1615407367,901999950,,0.0013845284238999272,-0.0020199629910703874,-0.7491126382492184,0.6624381163896397,-1.0,0.0,0.0,0.0,0.0,0.0,0.0,0.0,0.0,-5.088198629342713e-05,-0.0001608691345459381,0.00021064567492842817,-1.0,0.0,0.0,0.0,0.0,0.0,0.0,0.0,0.0,0.0,0.0,0.0,-1.0,0.0,0.0,0.0,0.0,0.0,0.0,0.0,0.0
1615407367.922,0,1615407367,921999931,,0.0013818318616688704,-0.0020300228608819506,-0.7491129566097555,0.6624377312527426,-1.0,0.0,0.0,0.0,0.0,0.0,0.0,0.0,0.0,0.0001756502114768418,-0.00038284943456637924,-0.0004270626986816145,-1.0,0.0,0.0,0.0,0.0,0.0,0.0,0.0,0.0,0.0,0.0,0.0,-1.0,0.0,0.0,0.0,0.0,0.0,0.0,0.0,0.0
1615407367.942,0,1615407367,941999912,,0.001379947397271085,-0.002026849782808993,-0.7491130107444712,0.6624376836793725,-1.0,0.0,0.0,0.0,0.0,0.0,0.0,0.0,0.0,-3.2106328539916823e-06,-0.0001998622263902263,-0.0005281064128858095,-1.0,0.0,0.0,0.0,0.0,0.0,0.0,0.0,0.0,0.0,0.0,0.0,-1.0,0.0,0.0,0.0,0.0,0.0,0.0,0.0,0.0
1615407367.962,0,1615407367,961999893,,0.0013733815386917656,-0.002027816540343385,-0.7491130955085681,0.6624375985108325,-1.0,0.0,0.0,0.0,0.0,0.0,0.0,0.0,0.0,-0.00012055798473639462,-0.0003511487508948458,-0.000481873048585317,-1.0,0.0,0.0,0.0,0.0,0.0,0.0,0.0,0.0,0.0,0.0,0.0,-1.0,0.0,0.0,0.0,0.0,0.0,0.0,0.0,0.0
1615407367.982,0,1615407367,982000113,,0.001366816187605046,-0.0020287835137999346,-0.7491130533676895,0.6624376567837162,-1.0,0.0,0.0,0.0,0.0,0.0,0.0,0.0,0.0,-0.00020877990237244898,-0.00042776043999496886,-0.00045028518669630753,-1.0,0.0,0.0,0.0,0.0,0.0,0.0,0.0,0.0,0.0,0.0,0.0,-1.0,0.0,0.0,0.0,0.0,0.0,0.0,0.0,0.0
1615407368.002,0,1615407368,2000093,,0.0013670038903745999,-0.002027951116362943,-0.7491132142139352,0.662437477053269,-1.0,0.0,0.0,0.0,0.0,0.0,0.0,0.0,0.0,-0.0001541489936461327,-0.000274406564961431,-0.00020455400192189433,-1.0,0.0,0.0,0.0,0.0,0.0,0.0,0.0,0.0,0.0,0.0,0.0,-1.0,0.0,0.0,0.0,0.0,0.0,0.0,0.0,0.0
1615407368.022,0,1615407368,22000074,,0.0013648507463449764,-0.002029188669784044,-0.7491133793288823,0.6624372909840182,-1.0,0.0,0.0,0.0,0.0,0.0,0.0,0.0,0.0,-0.00011830993450135906,-0.0002862801746912075,-0.0001659210031488877,-1.0,0.0,0.0,0.0,0.0,0.0,0.0,0.0,0.0,0.0,0.0,0.0,-1.0,0.0,0.0,0.0,0.0,0.0,0.0,0.0,0.0
1615407368.042,0,1615407368,42000055,,0.0013759303330785997,-0.002031238523647887,-0.749113393995053,0.6624372451960949,-1.0,0.0,0.0,0.0,0.0,0.0,0.0,0.0,0.0,0.0002439259395519143,4.467555241573985e-05,0.00010706041323834177,-1.0,0.0,0.0,0.0,0.0,0.0,0.0,0.0,0.0,0.0,0.0,0.0,-1.0,0.0,0.0,0.0,0.0,0.0,0.0,0.0,0.0
1615407368.062,0,1615407368,62000036,,0.0013672950280751218,-0.0020298645238947476,-0.7491134850906763,0.6624371642726742,-1.0,0.0,0.0,0.0,0.0,0.0,0.0,0.0,0.0,-3.938938094647076e-05,-0.00014432357278126151,0.00027493232544393745,-1.0,0.0,0.0,0.0,0.0,0.0,0.0,0.0,0.0,0.0,0.0,0.0,-1.0,0.0,0.0,0.0,0.0,0.0,0.0,0.0,0.0
1615407368.082,0,1615407368,82000017,,0.0013695510035090627,-0.0020313731539064925,-0.7491133224165232,0.6624373389470409,-1.0,0.0,0.0,0.0,0.0,0.0,0.0,0.0,0.0,5.819748225475322e-05,-5.345281698713986e-05,0.00035118828280128884,-1.0,0.0,0.0,0.0,0.0,0.0,0.0,0.0,0.0,0.0,0.0,0.0,-1.0,0.0,0.0,0.0,0.0,0.0,0.0,0.0,0.0
1615407368.102,0,1615407368,101999998,,0.0013741480750863076,-0.0020308113088314335,-0.7491132409629658,0.6624374232608369,-1.0,0.0,0.0,0.0,0.0,0.0,0.0,0.0,0.0,0.0001334653345922126,9.616453594686417e-05,8.38499914313905e-05,-1.0,0.0,0.0,0.0,0.0,0.0,0.0,0.0,0.0,0.0,0.0,0.0,-1.0,0.0,0.0,0.0,0.0,0.0,0.0,0.0,0.0
1615407368.122,0,1615407368,121999979,,0.0013769460458215223,-0.002023497435545269,-0.749113322323527,0.6624373478262854,-1.0,0.0,0.0,0.0,0.0,0.0,0.0,0.0,0.0,-4.214076322748028e-05,0.0002854332700693252,-0.00039644588598805163,-1.0,0.0,0.0,0.0,0.0,0.0,0.0,0.0,0.0,0.0,0.0,0.0,-1.0,0.0,0.0,0.0,0.0,0.0,0.0,0.0,0.0
1615407368.142,0,1615407368,141999960,,0.001385395720036291,-0.002030666196985144,-0.7491133697315887,0.662437254661058,-1.0,0.0,0.0,0.0,0.0,0.0,0.0,0.0,0.0,-3.2348028530850855e-05,0.00020711050305097917,-7.80701835709847e-05,-1.0,0.0,0.0,0.0,0.0,0.0,0.0,0.0,0.0,0.0,0.0,0.0,-1.0,0.0,0.0,0.0,0.0,0.0,0.0,0.0,0.0
1615407368.162,0,1615407368,161999941,,0.0013853106780570507,-0.0020342452276281902,-0.7491132748223098,0.6624373511855092,-1.0,0.0,0.0,0.0,0.0,0.0,0.0,0.0,0.0,6.282388970799752e-05,5.098498843405903e-05,-0.00019656943804133154,-1.0,0.0,0.0,0.0,0.0,0.0,0.0,0.0,0.0,0.0,0.0,0.0,-1.0,0.0,0.0,0.0,0.0,0.0,0.0,0.0,0.0
1615407368.182,0,1615407368,181999922,,0.0013878383913077724,-0.0020313435341801495,-0.7491132189827127,0.6624374179448231,-1.0,0.0,0.0,0.0,0.0,0.0,0.0,0.0,0.0,4.780153647782954e-05,0.00018842804137675465,-0.0003880838065072594,-1.0,0.0,0.0,0.0,0.0,0.0,0.0,0.0,0.0,0.0,0.0,0.0,-1.0,0.0,0.0,0.0,0.0,0.0,0.0,0.0,0.0
1615407368.202,0,1615407368,201999903,,0.0013885675620021515,-0.0020216893966473214,-0.7491132459242689,0.6624374154838442,-1.0,0.0,0.0,0.0,0.0,0.0,0.0,0.0,0.0,-0.00019954212498018542,0.0003561175949839974,-0.0002762535470650935,-1.0,0.0,0.0,0.0,0.0,0.0,0.0,0.0,0.0,0.0,0.0,0.0,-1.0,0.0,0.0,0.0,0.0,0.0,0.0,0.0,0.0
1615407368.222,0,1615407368,221999884,,0.0013910973423069638,-0.0020187869117967165,-0.7491135320618199,0.662437095450922,-1.0,0.0,0.0,0.0,0.0,0.0,0.0,0.0,0.0,-0.0001593148907708432,0.0003750282264128322,1.0888225625766552e-05,-1.0,0.0,0.0,0.0,0.0,0.0,0.0,0.0,0.0,0.0,0.0,0.0,-1.0,0.0,0.0,0.0,0.0,0.0,0.0,0.0,0.0
1615407368.242,0,1615407368,242000103,,0.001388674785828839,-0.002024436358979929,-0.7491136511667121,0.6624369486037484,-1.0,0.0,0.0,0.0,0.0,0.0,0.0,0.0,0.0,-4.302062285662315e-05,7.246559866570102e-05,-0.0003318215300889655,-1.0,0.0,0.0,0.0,0.0,0.0,0.0,0.0,0.0,0.0,0.0,0.0,-1.0,0.0,0.0,0.0,0.0,0.0,0.0,0.0,0.0
1615407368.262,0,1615407368,262000084,,0.0013800412699567792,-0.0020230633139133756,-0.7491137147527244,0.6624368989347552,-1.0,0.0,0.0,0.0,0.0,0.0,0.0,0.0,0.0,-0.0002715878520121813,-0.00012606234722920576,-0.00023929416331907685,-1.0,0.0,0.0,0.0,0.0,0.0,0.0,0.0,0.0,0.0,0.0,0.0,-1.0,0.0,0.0,0.0,0.0,0.0,0.0,0.0,0.0
1615407368.282,0,1615407368,282000065,,0.001373749018165642,-0.0020196204193194188,-0.7491138346223171,0.6624367869649487,-1.0,0.0,0.0,0.0,0.0,0.0,0.0,0.0,0.0,-0.0004327872250358869,-0.00018894985853105804,-4.3493152668057936e-05,-1.0,0.0,0.0,0.0,0.0,0.0,0.0,0.0,0.0,0.0,0.0,0.0,-1.0,0.0,0.0,0.0,0.0,0.0,0.0,0.0,0.0
1615407368.302,0,1615407368,302000046,,0.001378348712082154,-0.0020190608980653417,-0.7491137035366008,0.6624369273535372,-1.0,0.0,0.0,0.0,0.0,0.0,0.0,0.0,0.0,-0.00017604970326707663,-2.839415473007619e-06,-5.013900837202966e-05,-1.0,0.0,0.0,0.0,0.0,0.0,0.0,0.0,0.0,0.0,0.0,0.0,-1.0,0.0,0.0,0.0,0.0,0.0,0.0,0.0,0.0
1615407368.322,0,1615407368,322000027,,0.0013741267517445891,-0.002017959887386366,-0.7491137646586271,0.662436870360144,-1.0,0.0,0.0,0.0,0.0,0.0,0.0,0.0,0.0,-0.00024507918532574286,-0.00010811362156980996,7.052126270558852e-05,-1.0,0.0,0.0,0.0,0.0,0.0,0.0,0.0,0.0,0.0,0.0,0.0,-1.0,0.0,0.0,0.0,0.0,0.0,0.0,0.0,0.0
1615407368.342,0,1615407368,342000008,,0.0013743163981597792,-0.002017130980419189,-0.7491136386705983,0.6624370149642469,-1.0,0.0,0.0,0.0,0.0,0.0,0.0,0.0,0.0,-0.00017782681678633018,-6.467910318907012e-05,0.00011344641623973494,-1.0,0.0,0.0,0.0,0.0,0.0,0.0,0.0,0.0,0.0,0.0,0.0,-1.0,0.0,0.0,0.0,0.0,0.0,0.0,0.0,0.0
1615407368.362,0,1615407368,361999989,,0.0013724360303888458,-0.002013961111554141,-0.7491135603603045,0.6624371170641724,-1.0,0.0,0.0,0.0,0.0,0.0,0.0,0.0,0.0,-0.00022482434728782953,-1.4810716000904022e-05,0.0003814698508134945,-1.0,0.0,0.0,0.0,0.0,0.0,0.0,0.0,0.0,0.0,0.0,0.0,-1.0,0.0,0.0,0.0,0.0,0.0,0.0,0.0,0.0
1615407368.382,0,1615407368,381999969,,0.0013749668514850563,-0.002011061123788812,-0.7491135845340259,0.6624370932895415,-1.0,0.0,0.0,0.0,0.0,0.0,0.0,0.0,0.0,-0.00019843550453397792,0.0001452887693355736,0.0003400670500435687,-1.0,0.0,0.0,0.0,0.0,0.0,0.0,0.0,0.0,0.0,0.0,0.0,-1.0,0.0,0.0,0.0,0.0,0.0,0.0,0.0,0.0
1615407368.402,0,1615407368,401999950,,0.0013830413691439823,-0.0020181363094784847,-0.7491135245290603,0.6624371228200128,-1.0,0.0,0.0,0.0,0.0,0.0,0.0,0.0,0.0,-0.00013713104396165937,0.00011408237780974296,0.0002116717775956769,-1.0,0.0,0.0,0.0,0.0,0.0,0.0,0.0,0.0,0.0,0.0,0.0,-1.0,0.0,0.0,0.0,0.0,0.0,0.0,0.0,0.0
1615407368.422,0,1615407368,421999931,,0.001383231338426307,-0.0020173059311128162,-0.7491137184867254,0.6624369056165544,-1.0,0.0,0.0,0.0,0.0,0.0,0.0,0.0,0.0,-0.00010703847059703302,9.360378279872614e-05,0.00022089673734061467,-1.0,0.0,0.0,0.0,0.0,0.0,0.0,0.0,0.0,0.0,0.0,0.0,-1.0,0.0,0.0,0.0,0.0,0.0,0.0,0.0,0.0
1615407368.442,0,1615407368,441999912,,0.0013860322457569351,-0.002009994710562637,-0.749113708726398,0.6624369330238605,-1.0,0.0,0.0,0.0,0.0,0.0,0.0,0.0,0.0,-0.00019979943636574987,0.00028377982071835255,-9.280835413808539e-05,-1.0,0.0,0.0,0.0,0.0,0.0,0.0,0.0,0.0,0.0,0.0,0.0,-1.0,0.0,0.0,0.0,0.0,0.0,0.0,0.0,0.0
1615407368.462,0,1615407368,461999893,,0.0013815400148242526,-0.002013304845321537,-0.7491137513529382,0.6624368841517776,-1.0,0.0,0.0,0.0,0.0,0.0,0.0,0.0,0.0,-0.00013690198858902554,-1.1167297400246692e-05,-0.0003200125712988155,-1.0,0.0,0.0,0.0,0.0,0.0,0.0,0.0,0.0,0.0,0.0,0.0,-1.0,0.0,0.0,0.0,0.0,0.0,0.0,0.0,0.0
1615407368.482,0,1615407368,482000113,,0.0013744356266827441,-0.0020230958704955276,-0.7491137603959089,0.6624368588743441,-1.0,0.0,0.0,0.0,0.0,0.0,0.0,0.0,0.0,1.8097216703455134e-05,-0.0003970476374892047,0.00012076825426061025,-1.0,0.0,0.0,0.0,0.0,0.0,0.0,0.0,0.0,0.0,0.0,0.0,-1.0,0.0,0.0,0.0,0.0,0.0,0.0,0.0,0.0
1615407368.502,0,1615407368,502000093,,0.0013766951809491422,-0.0020246067887662294,-0.7491135812289449,0.6624370521763369,-1.0,0.0,0.0,0.0,0.0,0.0,0.0,0.0,0.0,9.605581248918234e-05,-0.0002542216182269565,0.0001588444821364454,-1.0,0.0,0.0,0.0,0.0,0.0,0.0,0.0,0.0,0.0,0.0,0.0,-1.0,0.0,0.0,0.0,0.0,0.0,0.0,0.0,0.0
1615407368.522,0,1615407368,522000074,,0.0013631103669116875,-0.00203178666547022,-0.7491134472309592,0.6624372098175212,-1.0,0.0,0.0,0.0,0.0,0.0,0.0,0.0,0.0,-0.00010038739130280313,-0.0006791130418215335,-4.239063536720753e-05,-1.0,0.0,0.0,0.0,0.0,0.0,0.0,0.0,0.0,0.0,0.0,0.0,-1.0,0.0,0.0,0.0,0.0,0.0,0.0,0.0,0.0
1615407368.542,0,1615407368,542000055,,0.0013586195825171002,-0.00203509627576334,-0.7491135173580254,0.662437129580963,-1.0,0.0,0.0,0.0,0.0,0.0,0.0,0.0,0.0,-9.303340733580979e-05,-0.000631625775487267,-2.5684036735216154e-05,-1.0,0.0,0.0,0.0,0.0,0.0,0.0,0.0,0.0,0.0,0.0,0.0,-1.0,0.0,0.0,0.0,0.0,0.0,0.0,0.0,0.0
1615407368.562,0,1615407368,562000036,,0.0013479182458499843,-0.0020313829076289112,-0.7491133527748998,0.6624373489577968,-1.0,0.0,0.0,0.0,0.0,0.0,0.0,0.0,0.0,-0.000395449543801916,-0.0005665673198346523,0.0001864756882503373,-1.0,0.0,0.0,0.0,0.0,0.0,0.0,0.0,0.0,0.0,0.0,0.0,-1.0,0.0,0.0,0.0,0.0,0.0,0.0,0.0,0.0
1615407368.582,0,1615407368,582000017,,0.0013527921108033416,-0.002026411700043859,-0.7491133976703261,0.6624373034785607,-1.0,0.0,0.0,0.0,0.0,0.0,0.0,0.0,0.0,-0.00027648931113900675,-0.0001153968499325215,-0.00013681878018713178,-1.0,0.0,0.0,0.0,0.0,0.0,0.0,0.0,0.0,0.0,0.0,0.0,-1.0,0.0,0.0,0.0,0.0,0.0,0.0,0.0,0.0
1615407368.602,0,1615407368,601999998,,0.0013555957913168161,-0.0020191002361676924,-0.7491133274849315,0.662437399441442,-1.0,0.0,0.0,0.0,0.0,0.0,0.0,0.0,0.0,-0.0003234177024187964,0.00018061268010005862,6.84120126411053e-05,-1.0,0.0,0.0,0.0,0.0,0.0,0.0,0.0,0.0,0.0,0.0,0.0,-1.0,0.0,0.0,0.0,0.0,0.0,0.0,0.0,0.0
1615407368.622,0,1615407368,621999979,,0.0013508357413990128,-0.0020268212727953577,-0.7491133264683711,0.6624373867361499,-1.0,0.0,0.0,0.0,0.0,0.0,0.0,0.0,0.0,-0.00010419556526655542,-0.0001912624775051616,-5.7798708164513126e-05,-1.0,0.0,0.0,0.0,0.0,0.0,0.0,0.0,0.0,0.0,0.0,0.0,-1.0,0.0,0.0,0.0,0.0,0.0,0.0,0.0,0.0
1615407368.642,0,1615407368,641999960,,0.0013466187496897503,-0.0020257195090482736,-0.7491134675585621,0.6624372391410381,-1.0,0.0,0.0,0.0,0.0,0.0,0.0,0.0,0.0,-0.00017647034966220893,-0.00021022690046082314,-5.9588565524163685e-05,-1.0,0.0,0.0,0.0,0.0,0.0,0.0,0.0,0.0,0.0,0.0,0.0,-1.0,0.0,0.0,0.0,0.0,0.0,0.0,0.0,0.0
1615407368.662,0,1615407368,661999941,,0.0013605925831252279,-0.0020269668658032076,-0.7491132449295841,0.6624374585304009,-1.0,0.0,0.0,0.0,0.0,0.0,0.0,0.0,0.0,-0.0001226158075585071,0.00021970543113530015,-0.00014065481934012465,-1.0,0.0,0.0,0.0,0.0,0.0,0.0,0.0,0.0,0.0,0.0,0.0,-1.0,0.0,0.0,0.0,0.0,0.0,0.0,0.0,0.0
1615407368.682,0,1615407368,681999922,,0.001356376505482231,-0.002025866016360139,-0.7491133474322913,0.6624373546294369,-1.0,0.0,0.0,0.0,0.0,0.0,0.0,0.0,0.0,-0.00018851079726940698,4.929057494109518e-05,0.00020096934326921953,-1.0,0.0,0.0,0.0,0.0,0.0,0.0,0.0,0.0,0.0,0.0,0.0,-1.0,0.0,0.0,0.0,0.0,0.0,0.0,0.0,0.0
1615407368.702,0,1615407368,701999903,,0.001354229369205254,-0.0020271066610916787,-0.7491133222552385,0.6624373836983534,-1.0,0.0,0.0,0.0,0.0,0.0,0.0,0.0,0.0,-0.0001406348811893679,-8.39195971310097e-05,6.516635192981414e-06,-1.0,0.0,0.0,0.0,0.0,0.0,0.0,0.0,0.0,0.0,0.0,0.0,-1.0,0.0,0.0,0.0,0.0,0.0,0.0,0.0,0.0
1615407368.722,0,1615407368,721999884,,0.001356492974402655,-0.0020286179533224196,-0.7491133582257361,0.6624373337635567,-1.0,0.0,0.0,0.0,0.0,0.0,0.0,0.0,0.0,-4.18649369432603e-05,-7.008570289186508e-05,0.000389774697726313,-1.0,0.0,0.0,0.0,0.0,0.0,0.0,0.0,0.0,0.0,0.0,0.0,-1.0,0.0,0.0,0.0,0.0,0.0,0.0,0.0,0.0
1615407368.742,0,1615407368,742000103,,0.0013546149343496407,-0.002025446953836023,-0.7491132827161106,0.6624374326993527,-1.0,0.0,0.0,0.0,0.0,0.0,0.0,0.0,0.0,-0.000135596313332021,-3.96469412270047e-05,7.763330186491254e-06,-1.0,0.0,0.0,0.0,0.0,0.0,0.0,0.0,0.0,0.0,0.0,0.0,-1.0,0.0,0.0,0.0,0.0,0.0,0.0,0.0,0.0
1615407368.762,0,1615407368,762000084,,0.001354807666358296,-0.0020246170235267177,-0.7491132891192293,0.6624374276013286,-1.0,0.0,0.0,0.0,0.0,0.0,0.0,0.0,0.0,-7.207989939235097e-05,1.4201681836514483e-05,0.00010602353797773916,-1.0,0.0,0.0,0.0,0.0,0.0,0.0,0.0,0.0,0.0,0.0,0.0,-1.0,0.0,0.0,0.0,0.0,0.0,0.0,0.0,0.0
1615407368.782,0,1615407368,782000065,,0.0013461792174624535,-0.002023244487515384,-0.7491134104018583,0.6624373122336598,-1.0,0.0,0.0,0.0,0.0,0.0,0.0,0.0,0.0,-0.0002780264909049262,-0.00016655232866261057,0.0002402486984828965,-1.0,0.0,0.0,0.0,0.0,0.0,0.0,0.0,0.0,0.0,0.0,0.0,-1.0,0.0,0.0,0.0,0.0,0.0,0.0,0.0,0.0
1615407368.802,0,1615407368,802000046,,0.00135753563877003,-0.002020885869575598,-0.7491133831977541,0.6624373270214372,-1.0,0.0,0.0,0.0,0.0,0.0,0.0,0.0,0.0,-7.029013831941681e-06,0.00024832373833927964,0.000102046160732437,-1.0,0.0,0.0,0.0,0.0,0.0,0.0,0.0,0.0,0.0,0.0,0.0,-1.0,0.0,0.0,0.0,0.0,0.0,0.0,0.0,0.0
1615407368.822,0,1615407368,822000027,,0.0013597983885314988,-0.002022397439220696,-0.7491132591618295,0.662437458032743,-1.0,0.0,0.0,0.0,0.0,0.0,0.0,0.0,0.0,7.96582010148877e-05,0.00019064128095967617,5.5359247539871044e-05,-1.0,0.0,0.0,0.0,0.0,0.0,0.0,0.0,0.0,0.0,0.0,0.0,-1.0,0.0,0.0,0.0,0.0,0.0,0.0,0.0,0.0
1615407368.842,0,1615407368,842000008,,0.0013617907450095771,-0.0020283192413880643,-0.7491133288574279,0.6624373570196394,-1.0,0.0,0.0,0.0,0.0,0.0,0.0,0.0,0.0,0.0002490158256590454,5.28055781707272e-05,0.0002520956954396229,-1.0,0.0,0.0,0.0,0.0,0.0,0.0,0.0,0.0,0.0,0.0,0.0,-1.0,0.0,0.0,0.0,0.0,0.0,0.0,0.0,0.0
1615407368.862,0,1615407368,861999989,,0.001357301317075236,-0.002031629958003627,-0.7491132665227952,0.66243742657884,-1.0,0.0,0.0,0.0,0.0,0.0,0.0,0.0,0.0,0.00014639772922487318,-0.0001727629200815418,0.00023481077143431715,-1.0,0.0,0.0,0.0,0.0,0.0,0.0,0.0,0.0,0.0,0.0,0.0,-1.0,0.0,0.0,0.0,0.0,0.0,0.0,0.0,0.0
1615407368.882,0,1615407368,881999969,,0.0013484007172360215,-0.0020346702183621007,-0.7491132037152979,0.6624375064502395,-1.0,0.0,0.0,0.0,0.0,0.0,0.0,0.0,0.0,-4.591785096077201e-05,-0.0004220139421646671,0.000346074662662862,-1.0,0.0,0.0,0.0,0.0,0.0,0.0,0.0,0.0,0.0,0.0,0.0,-1.0,0.0,0.0,0.0,0.0,0.0,0.0,0.0,0.0
1615407368.902,0,1615407368,901999950,,0.001353276252897675,-0.00202970026988345,-0.7491131796148092,0.6624375390084627,-1.0,0.0,0.0,0.0,0.0,0.0,0.0,0.0,0.0,-4.709111909837189e-05,-2.05318874927444e-05,0.00076016658314765,-1.0,0.0,0.0,0.0,0.0,0.0,0.0,0.0,0.0,0.0,0.0,0.0,-1.0,0.0,0.0,0.0,0.0,0.0,0.0,0.0,0.0
1615407368.922,0,1615407368,921999931,,0.0013596991656478856,-0.002037002059361219,-0.749113071846237,0.6624376253126657,-1.0,0.0,0.0,0.0,0.0,0.0,0.0,0.0,0.0,-3.535231255488713e-05,3.006114269406957e-06,0.000466879925004179,-1.0,0.0,0.0,0.0,0.0,0.0,0.0,0.0,0.0,0.0,0.0,0.0,-1.0,0.0,0.0,0.0,0.0,0.0,0.0,0.0,0.0
1615407368.942,0,1615407368,941999912,,0.0013622334156818672,-0.0020341027058933033,-0.7491131126115614,0.6624375829160973,-1.0,0.0,0.0,0.0,0.0,0.0,0.0,0.0,0.0,-1.640544897318585e-05,0.00013330022487707208,0.00047695382631834444,-1.0,0.0,0.0,0.0,0.0,0.0,0.0,0.0,0.0,0.0,0.0,0.0,-1.0,0.0,0.0,0.0,0.0,0.0,0.0,0.0,0.0
1615407368.962,0,1615407368,961999893,,0.0013554036085681766,-0.0020394848932533275,-0.749113079342829,0.6624376179988063,-1.0,0.0,0.0,0.0,0.0,0.0,0.0,0.0,0.0,-2.7697967473936643e-05,-0.0002110912581054302,4.119095325110596e-05,-1.0,0.0,0.0,0.0,0.0,0.0,0.0,0.0,0.0,0.0,0.0,0.0,-1.0,0.0,0.0,0.0,0.0,0.0,0.0,0.0,0.0
1615407368.982,0,1615407368,982000113,,0.0013535250963762444,-0.002036316710503092,-0.7491129293954326,0.6624378011531813,-1.0,0.0,0.0,0.0,0.0,0.0,0.0,0.0,0.0,-0.00016011088562113246,-0.00011972914272202599,-0.00010723466337490497,-1.0,0.0,0.0,0.0,0.0,0.0,0.0,0.0,0.0,0.0,0.0,0.0,-1.0,0.0,0.0,0.0,0.0,0.0,0.0,0.0,0.0
1615407369.002,0,1615407369,2000093,,0.0013542585518000773,-0.002026666910126285,-0.7491130089760588,0.6624377392539209,-1.0,0.0,0.0,0.0,0.0,0.0,0.0,0.0,0.0,-0.0003594956730305632,0.00012006696905916939,-9.210997706231797e-05,-1.0,0.0,0.0,0.0,0.0,0.0,0.0,0.0,0.0,0.0,0.0,0.0,-1.0,0.0,0.0,0.0,0.0,0.0,0.0,0.0,0.0
1615407369.022,0,1615407369,22000074,,0.0013632711007678148,-0.002026381139164951,-0.7491128645931872,0.6624378849162945,-1.0,0.0,0.0,0.0,0.0,0.0,0.0,0.0,0.0,-6.0475561691211513e-05,0.0003225073812706457,-0.00025082936071907586,-1.0,0.0,0.0,0.0,0.0,0.0,0.0,0.0,0.0,0.0,0.0,0.0,-1.0,0.0,0.0,0.0,0.0,0.0,0.0,0.0,0.0
1615407369.042,0,1615407369,42000055,,0.0013564387926418427,-0.002031763886950826,-0.7491130161507987,0.662437711066303,-1.0,0.0,0.0,0.0,0.0,0.0,0.0,0.0,0.0,-4.5407766184599544e-05,-9.955241465982025e-05,-7.385838035588403e-05,-1.0,0.0,0.0,0.0,0.0,0.0,0.0,0.0,0.0,0.0,0.0,0.0,-1.0,0.0,0.0,0.0,0.0,0.0,0.0,0.0,0.0
1615407369.062,0,1615407369,62000036,,0.0013607699378078216,-0.002035618826832661,-0.7491130898357017,0.6624376070227114,-1.0,0.0,0.0,0.0,0.0,0.0,0.0,0.0,0.0,0.00015686967862742194,-2.522524301998323e-05,6.725638110684776e-05,-1.0,0.0,0.0,0.0,0.0,0.0,0.0,0.0,0.0,0.0,0.0,0.0,-1.0,0.0,0.0,0.0,0.0,0.0,0.0,0.0,0.0
1615407369.082,0,1615407369,82000017,,0.001356549136335806,-0.0020345218375552123,-0.7491127896890123,0.6624379584683225,-1.0,0.0,0.0,0.0,0.0,0.0,0.0,0.0,0.0,-2.6516109251152953e-05,-6.756678515715828e-05,0.00023607033237202938,-1.0,0.0,0.0,0.0,0.0,0.0,0.0,0.0,0.0,0.0,0.0,0.0,-1.0,0.0,0.0,0.0,0.0,0.0,0.0,0.0,0.0
1615407369.102,0,1615407369,101999998,,0.0013564711472493728,-0.002038105102345069,-0.7491130118648227,0.6624376963673131,-1.0,0.0,0.0,0.0,0.0,0.0,0.0,0.0,0.0,7.816311619142737e-05,-0.0001268090606076198,2.059966990559109e-05,-1.0,0.0,0.0,0.0,0.0,0.0,0.0,0.0,0.0,0.0,0.0,0.0,-1.0,0.0,0.0,0.0,0.0,0.0,0.0,0.0,0.0
1615407369.122,0,1615407369,121999979,,0.0013437014309468302,-0.0020320540762314805,-0.7491130659362767,0.6624376798358071,-1.0,0.0,0.0,0.0,0.0,0.0,0.0,0.0,0.0,-0.0003955012212586438,-0.00028053980280571595,-0.00010950926421710822,-1.0,0.0,0.0,0.0,0.0,0.0,0.0,0.0,0.0,0.0,0.0,0.0,-1.0,0.0,0.0,0.0,0.0,0.0,0.0,0.0,0.0
1615407369.142,0,1615407369,141999960,,0.0013415515085656083,-0.002033298642826303,-0.7491130710270577,0.6624376746174612,-1.0,0.0,0.0,0.0,0.0,0.0,0.0,0.0,0.0,-0.0002865273394015339,-0.0002666145854847626,-0.0002860027625218881,-1.0,0.0,0.0,0.0,0.0,0.0,0.0,0.0,0.0,0.0,0.0,0.0,-1.0,0.0,0.0,0.0,0.0,0.0,0.0,0.0,0.0
1615407369.162,0,1615407369,161999941,,0.0013394017919240602,-0.002034543715465792,-0.7491129961123959,0.6624377598614222,-1.0,0.0,0.0,0.0,0.0,0.0,0.0,0.0,0.0,-0.00020488560296921674,-0.00026997053085978806,1.68276364847054e-05,-1.0,0.0,0.0,0.0,0.0,0.0,0.0,0.0,0.0,0.0,0.0,0.0,-1.0,0.0,0.0,0.0,0.0,0.0,0.0,0.0,0.0
1615407369.182,0,1615407369,181999922,,0.001351507086631894,-0.0020442684535751272,-0.7491130206097217,0.6624376776331967,-1.0,0.0,0.0,0.0,0.0,0.0,0.0,0.0,0.0,5.2306371452198546e-05,-1.2059207111585288e-05,0.0003066253218786371,-1.0,0.0,0.0,0.0,0.0,0.0,0.0,0.0,0.0,0.0,0.0,0.0,-1.0,0.0,0.0,0.0,0.0,0.0,0.0,0.0,0.0
1615407369.202,0,1615407369,201999903,,0.001349628513788526,-0.002041101968609305,-0.7491129754910488,0.6624377422494706,-1.0,0.0,0.0,0.0,0.0,0.0,0.0,0.0,0.0,-8.620574415679417e-05,3.217836041435539e-05,8.829214016664266e-05,-1.0,0.0,0.0,0.0,0.0,0.0,0.0,0.0,0.0,0.0,0.0,0.0,-1.0,0.0,0.0,0.0,0.0,0.0,0.0,0.0,0.0
1615407369.222,0,1615407369,221999884,,0.0013389280479779615,-0.0020373936332646557,-0.7491132217687699,0.6624374968780673,-1.0,0.0,0.0,0.0,0.0,0.0,0.0,0.0,0.0,-0.00039970155041153615,-0.00019893899430366085,-0.00026869391970007984,-1.0,0.0,0.0,0.0,0.0,0.0,0.0,0.0,0.0,0.0,0.0,0.0,-1.0,0.0,0.0,0.0,0.0,0.0,0.0,0.0,0.0
1615407369.242,0,1615407369,242000103,,0.0013341666093113589,-0.0020451195283172443,-0.7491133942856933,0.6624372875882975,-1.0,0.0,0.0,0.0,0.0,0.0,0.0,0.0,0.0,-0.00015415567945576013,-0.000429207028650248,-0.00020929828247155427,-1.0,0.0,0.0,0.0,0.0,0.0,0.0,0.0,0.0,0.0,0.0,0.0,-1.0,0.0,0.0,0.0,0.0,0.0,0.0,0.0,0.0
1615407369.262,0,1615407369,262000084,,0.0013384982289994546,-0.0020489765340831897,-0.7491133768689976,0.6624372866268785,-1.0,0.0,0.0,0.0,0.0,0.0,0.0,0.0,0.0,8.558523141097456e-05,-0.00025165885619522234,-0.0002590614095464426,-1.0,0.0,0.0,0.0,0.0,0.0,0.0,0.0,0.0,0.0,0.0,0.0,-1.0,0.0,0.0,0.0,0.0,0.0,0.0,0.0,0.0
1615407369.282,0,1615407369,282000065,,0.0013428312559861924,-0.002052833558385351,-0.7491135331932447,0.6624370891377784,-1.0,0.0,0.0,0.0,0.0,0.0,0.0,0.0,0.0,0.0002655328562505048,-0.00013515745486332271,-0.0002929299625639178,-1.0,0.0,0.0,0.0,0.0,0.0,0.0,0.0,0.0,0.0,0.0,0.0,-1.0,0.0,0.0,0.0,0.0,0.0,0.0,0.0,0.0
1615407369.302,0,1615407369,302000046,,0.0013383414328172665,-0.002056148555597963,-0.7491134652465722,0.6624371647798749,-1.0,0.0,0.0,0.0,0.0,0.0,0.0,0.0,0.0,0.00015733462092562664,-0.0002724421259592241,-0.0003050265729143689,-1.0,0.0,0.0,0.0,0.0,0.0,0.0,0.0,0.0,0.0,0.0,0.0,-1.0,0.0,0.0,0.0,0.0,0.0,0.0,0.0,0.0
1615407369.322,0,1615407369,322000027,,0.0013338516775464491,-0.002059463006853309,-0.7491133448708928,0.6624372996655372,-1.0,0.0,0.0,0.0,0.0,0.0,0.0,0.0,0.0,8.633430068166002e-05,-0.0003862443772957113,-9.687721077231756e-05,-1.0,0.0,0.0,0.0,0.0,0.0,0.0,0.0,0.0,0.0,0.0,0.0,-1.0,0.0,0.0,0.0,0.0,0.0,0.0,0.0,0.0
1615407369.342,0,1615407369,342000008,,0.001331973555825292,-0.0020562964516564787,-0.7491131398330436,0.6624375451473358,-1.0,0.0,0.0,0.0,0.0,0.0,0.0,0.0,0.0,-9.536620572101433e-05,-0.0002234165419709977,-0.00019781774528538878,-1.0,0.0,0.0,0.0,0.0,0.0,0.0,0.0,0.0,0.0,0.0,0.0,-1.0,0.0,0.0,0.0,0.0,0.0,0.0,0.0,0.0
1615407369.362,0,1615407369,361999989,,0.0013342364190398366,-0.002057811742419531,-0.7491132004974388,0.6624374672861546,-1.0,0.0,0.0,0.0,0.0,0.0,0.0,0.0,0.0,1.1671212591165663e-05,-0.00011659891995905605,-0.00026402635417268277,-1.0,0.0,0.0,0.0,0.0,0.0,0.0,0.0,0.0,0.0,0.0,0.0,-1.0,0.0,0.0,0.0,0.0,0.0,0.0,0.0,0.0
1615407369.382,0,1615407369,381999969,,0.001329747231628514,-0.0020611268800251013,-0.7491132786887903,0.6624373775840364,-1.0,0.0,0.0,0.0,0.0,0.0,0.0,0.0,0.0,-1.9333383270230853e-05,-0.00025014753222944936,-0.00030747666567127856,-1.0,0.0,0.0,0.0,0.0,0.0,0.0,0.0,0.0,0.0,0.0,0.0,-1.0,0.0,0.0,0.0,0.0,0.0,0.0,0.0,0.0
1615407369.402,0,1615407369,401999950,,0.001333809557204123,-0.0020693948255288215,-0.7491134243676609,0.6624371789002169,-1.0,0.0,0.0,0.0,0.0,0.0,0.0,0.0,0.0,0.0002990667574608351,-0.00023652851644725292,-0.0001323634478945667,-1.0,0.0,0.0,0.0,0.0,0.0,0.0,0.0,0.0,0.0,0.0,0.0,-1.0,0.0,0.0,0.0,0.0,0.0,0.0,0.0,0.0
1615407369.422,0,1615407369,421999931,,0.0013407545975632192,-0.002066771342095124,-0.7491134104723229,0.6624371887838527,-1.0,0.0,0.0,0.0,0.0,0.0,0.0,0.0,0.0,0.0002918773090058704,6.714969165315705e-05,-9.849316430873774e-05,-1.0,0.0,0.0,0.0,0.0,0.0,0.0,0.0,0.0,0.0,0.0,0.0,-1.0,0.0,0.0,0.0,0.0,0.0,0.0,0.0,0.0
1615407369.442,0,1615407369,441999912,,0.0013489449288723709,-0.00207206006592367,-0.7491133258431588,0.6624372513369575,-1.0,0.0,0.0,0.0,0.0,0.0,0.0,0.0,0.0,0.00019842526194505675,0.00017528709911273355,-0.00015378603779476742,-1.0,0.0,0.0,0.0,0.0,0.0,0.0,0.0,0.0,0.0,0.0,0.0,-1.0,0.0,0.0,0.0,0.0,0.0,0.0,0.0,0.0
1615407369.462,0,1615407369,461999893,,0.0013400449809441053,-0.002075105823782231,-0.74911341755977,0.6624371561493143,-1.0,0.0,0.0,0.0,0.0,0.0,0.0,0.0,0.0,1.2120305272276485e-05,-0.00018366273302952168,-0.00021380698894295496,-1.0,0.0,0.0,0.0,0.0,0.0,0.0,0.0,0.0,0.0,0.0,0.0,-1.0,0.0,0.0,0.0,0.0,0.0,0.0,0.0,0.0
1615407369.482,0,1615407369,482000113,,0.0013425797719032642,-0.0020722121706681714,-0.7491134253287723,0.6624371512894409,-1.0,0.0,0.0,0.0,0.0,0.0,0.0,0.0,0.0,-2.1347883218249294e-05,2.0841657563777557e-05,-0.0002531628757984382,-1.0,0.0,0.0,0.0,0.0,0.0,0.0,0.0,0.0,0.0,0.0,0.0,-1.0,0.0,0.0,0.0,0.0,0.0,0.0,0.0,0.0
1615407369.502,0,1615407369,502000093,,0.0013404320722466769,-0.0020734588339014095,-0.7491133421949142,0.6624372457492779,-1.0,0.0,0.0,0.0,0.0,0.0,0.0,0.0,0.0,-4.3314948589353984e-05,-6.885649186238161e-05,-0.00026533331895348166,-1.0,0.0,0.0,0.0,0.0,0.0,0.0,0.0,0.0,0.0,0.0,0.0,-1.0,0.0,0.0,0.0,0.0,0.0,0.0,0.0,0.0
1615407369.522,0,1615407369,522000074,,0.0013364849599121098,-0.0020679537999785075,-0.7491132981699865,0.6624373207179063,-1.0,0.0,0.0,0.0,0.0,0.0,0.0,0.0,0.0,-0.0002375908175703925,6.1485765986391515e-06,-0.00020831803221098722,-1.0,0.0,0.0,0.0,0.0,0.0,0.0,0.0,0.0,0.0,0.0,0.0,-1.0,0.0,0.0,0.0,0.0,0.0,0.0,0.0,0.0
1615407369.542,0,1615407369,542000055,,0.0013317259935406976,-0.0020756814091508883,-0.7491133216951853,0.6624372795301995,-1.0,0.0,0.0,0.0,0.0,0.0,0.0,0.0,0.0,-8.156593769892409e-05,-0.0003261037683733691,-0.00046327338018101383,-1.0,0.0,0.0,0.0,0.0,0.0,0.0,0.0,0.0,0.0,0.0,0.0,-1.0,0.0,0.0,0.0,0.0,0.0,0.0,0.0,0.0
1615407369.562,0,1615407369,562000036,,0.0013384004033823202,-0.002077469704984861,-0.7491133688915017,0.6624372071011787,-1.0,0.0,0.0,0.0,0.0,0.0,0.0,0.0,0.0,0.00013216309537322166,-7.263731268342667e-05,-0.00032563279061829573,-1.0,0.0,0.0,0.0,0.0,0.0,0.0,0.0,0.0,0.0,0.0,0.0,-1.0,0.0,0.0,0.0,0.0,0.0,0.0,0.0,0.0
1615407369.582,0,1615407369,582000017,,0.0013277001962830287,-0.002073763838070504,-0.7491132735048797,0.662437348112662,-1.0,0.0,0.0,0.0,0.0,0.0,0.0,0.0,0.0,-0.00026885484185874115,-0.0002450907367664998,-0.0002465725709876184,-1.0,0.0,0.0,0.0,0.0,0.0,0.0,0.0,0.0,0.0,0.0,0.0,-1.0,0.0,0.0,0.0,0.0,0.0,0.0,0.0,0.0
1615407369.602,0,1615407369,601999998,,0.001332574611322727,-0.0020687996227645245,-0.7491134123130021,0.6624371968766521,-1.0,0.0,0.0,0.0,0.0,0.0,0.0,0.0,0.0,-0.00019324231367759187,6.149427131499661e-05,-0.00012620665127689303,-1.0,0.0,0.0,0.0,0.0,0.0,0.0,0.0,0.0,0.0,0.0,0.0,-1.0,0.0,0.0,0.0,0.0,0.0,0.0,0.0,0.0
1615407369.622,0,1615407369,621999979,,0.0013283554526966688,-0.002067703885788498,-0.7491135948740039,0.6624370023235258,-1.0,0.0,0.0,0.0,0.0,0.0,0.0,0.0,0.0,-0.00023478977008944442,-3.3343329389572606e-05,-2.4621132150880906e-05,-1.0,0.0,0.0,0.0,0.0,0.0,0.0,0.0,0.0,0.0,0.0,0.0,-1.0,0.0,0.0,0.0,0.0,0.0,0.0,0.0,0.0
1615407369.642,0,1615407369,641999960,,0.001323865539089705,-0.0020710203076402863,-0.7491136289522556,0.662436962414464,-1.0,0.0,0.0,0.0,0.0,0.0,0.0,0.0,0.0,-0.00020476583100121953,-0.0001955661411600405,8.713502755120646e-05,-1.0,0.0,0.0,0.0,0.0,0.0,0.0,0.0,0.0,0.0,0.0,0.0,-1.0,0.0,0.0,0.0,0.0,0.0,0.0,0.0,0.0
1615407369.662,0,1615407369,661999941,,0.0013237869199758502,-0.002074608402494418,-0.7491136248034144,0.6624369560358603,-1.0,0.0,0.0,0.0,0.0,0.0,0.0,0.0,0.0,-4.754714614331519e-05,-0.0002346356522277646,1.1712850530777087e-05,-1.0,0.0,0.0,0.0,0.0,0.0,0.0,0.0,0.0,0.0,0.0,0.0,-1.0,0.0,0.0,0.0,0.0,0.0,0.0,0.0,0.0
1615407369.682,0,1615407369,681999922,,0.0013213674994551126,-0.0020802664781471494,-0.7491135475413884,0.662437030493667,-1.0,0.0,0.0,0.0,0.0,0.0,0.0,0.0,0.0,8.823013713355783e-05,-0.00033000068760680504,-0.00012774859975535517,-1.0,0.0,0.0,0.0,0.0,0.0,0.0,0.0,0.0,0.0,0.0,0.0,-1.0,0.0,0.0,0.0,0.0,0.0,0.0,0.0,0.0
1615407369.702,0,1615407369,701999903,,0.001327887343610673,-0.0020873243217862133,-0.749113733072348,0.662436785448083,-1.0,0.0,0.0,0.0,0.0,0.0,0.0,0.0,0.0,7.495146242549481e-05,-0.000244181915808445,-0.0001191292845017523,-1.0,0.0,0.0,0.0,0.0,0.0,0.0,0.0,0.0,0.0,0.0,0.0,-1.0,0.0,0.0,0.0,0.0,0.0,0.0,0.0,0.0
1615407369.722,0,1615407369,721999884,,0.0013348325289744116,-0.002084701394685513,-0.7491138432678599,0.662436655135169,-1.0,0.0,0.0,0.0,0.0,0.0,0.0,0.0,0.0,0.00012347463374548173,9.360087832562935e-05,-0.00019097648705275689,-1.0,0.0,0.0,0.0,0.0,0.0,0.0,0.0,0.0,0.0,0.0,0.0,-1.0,0.0,0.0,0.0,0.0,0.0,0.0,0.0,0.0
